id;code;city;state;state_code;latitude;longitude;capital;area_code;timezone;population;employed;property_maximum_value;per_capta_income;buyer_demand;own_property;rented_property
1;1100015;Alta Floresta D'Oeste;Rondonia;RO;-11.92830000;-61.99530000;0;69;America/Porto_Velho;21494;8962;210000;2154.81;0.00;5745;1139
2;1100023;Ariquemes;Rondonia;RO;-9.90571000;-63.03250000;0;69;America/Porto_Velho;96833;45642;225000;2569.41;0.00;22010;9528
3;1100031;Cabixi;Rondonia;RO;-13.49450000;-60.55200000;0;69;America/Porto_Velho;5351;2286;210000;2281.93;0.00;1427;268
4;1100049;Cacoal;Rondonia;RO;-11.43430000;-61.45620000;0;69;America/Porto_Velho;86887;39994;220000;2781.78;0.00;20389;8497
5;1100056;Cerejeiras;Rondonia;RO;-13.18700000;-60.81680000;0;69;America/Porto_Velho;15890;7172;210000;2741.65;0.00;4075;1336
6;1100064;Colorado do Oeste;Rondonia;RO;-13.11740000;-60.54540000;0;69;America/Porto_Velho;15663;7235;210000;2753.72;0.00;4349;907
7;1100072;Corumbiara;Rondonia;RO;-12.95510000;-60.89470000;0;69;America/Porto_Velho;7519;3320;210000;2202.29;0.00;2001;365
8;1100080;Costa Marques;Rondonia;RO;-12.43670000;-64.22800000;0;69;America/Porto_Velho;12627;5119;210000;2001.88;0.00;3067;546
9;1100098;Espigão D'Oeste;Rondonia;RO;-11.52660000;-61.02520000;0;69;America/Porto_Velho;29414;13036;210000;2389.36;0.00;7621;1962
10;1100106;Guajará-Mirim;Rondonia;RO;-10.78890000;-65.32960000;0;69;America/Porto_Velho;39387;13578;210000;2261.61;0.00;8776;1822
11;1100114;Jaru;Rondonia;RO;-10.43180000;-62.47880000;0;69;America/Porto_Velho;50591;20997;210000;2550.38;0.00;13181;4116
12;1100122;Ji-Paraná;Rondonia;RO;-10.87770000;-61.93220000;0;69;America/Porto_Velho;124333;57338;235000;2550.73;0.00;30811;10720
13;1100130;Machadinho D'Oeste;Rondonia;RO;-9.44363000;-61.98180000;0;69;America/Porto_Velho;30707;11820;210000;1977.88;0.00;7941;1750
14;1100148;Nova Brasilândia D'Oeste;Rondonia;RO;-11.72470000;-62.31270000;0;69;America/Porto_Velho;15679;4705;210000;2136.31;0.00;4283;663
15;1100155;Ouro Preto do Oeste;Rondonia;RO;-10.71670000;-62.25650000;0;69;America/Porto_Velho;35044;14745;210000;2469.95;0.00;9392;2770
16;1100189;Pimenta Bueno;Rondonia;RO;-11.67200000;-61.19800000;0;69;America/Porto_Velho;35079;15109;210000;2383.57;0.00;8518;2756
17;1100205;Porto Velho;Rondonia;RO;-8.76077000;-63.89990000;1;69;America/Porto_Velho;460434;190586;255000;2842.89;0.00;109209;31126
18;1100254;Presidente Médici;Rondonia;RO;-11.16900000;-61.89860000;0;69;America/Porto_Velho;19327;7112;210000;2293.82;0.00;5424;1140
19;1100262;Rio Crespo;Rondonia;RO;-9.69965000;-62.90110000;0;69;America/Porto_Velho;3471;1513;210000;2243.23;0.00;882;126
20;1100288;Rolim de Moura;Rondonia;RO;-11.72710000;-61.77140000;0;69;America/Porto_Velho;56406;26307;210000;2490.1;0.00;14397;4651
21;1100296;Santa Luzia D'Oeste;Rondonia;RO;-11.90740000;-61.77770000;0;69;America/Porto_Velho;7419;2553;210000;2014.01;0.00;2128;237
22;1100304;Vilhena;Rondonia;RO;-12.75020000;-60.14880000;0;69;America/Porto_Velho;95832;44608;225000;2842.63;0.00;23193;9747
23;1100320;São Miguel do Guaporé;Rondonia;RO;-11.69530000;-62.71920000;0;69;America/Porto_Velho;21635;9200;210000;2296.75;0.00;5526;1287
24;1100338;Nova Mamoré;Rondonia;RO;-10.40770000;-65.33460000;0;69;America/Porto_Velho;25444;10630;210000;2188.62;0.00;6154;1076
25;1100346;Alvorada D'Oeste;Rondonia;RO;-11.34630000;-62.28470000;0;69;America/Porto_Velho;13117;4912;210000;2420.67;0.00;3714;586
26;1100379;Alto Alegre dos Parecis;Rondonia;RO;-12.13200000;-61.83500000;0;69;America/Porto_Velho;11479;4790;210000;2116.48;0.00;3124;390
27;1100403;Alto Paraíso;Rondonia;RO;-9.71429000;-63.31880000;0;69;America/Porto_Velho;16320;5842;210000;2471.28;0.00;4265;887
28;1100452;Buritis;Rondonia;RO;-10.19430000;-63.83240000;0;69;America/Porto_Velho;27992;12169;210000;2229.64;0.00;6871;1930
29;1100502;Novo Horizonte do Oeste;Rondonia;RO;-11.69610000;-61.99510000;0;69;America/Porto_Velho;7667;2621;210000;2193.14;0.00;2098;317
30;1100601;Cacaulândia;Rondonia;RO;-10.34900000;-62.90430000;0;69;America/Porto_Velho;4150;1358;210000;2322.91;0.00;1112;129
31;1100700;Campo Novo de Rondônia;Rondonia;RO;-10.57120000;-63.62660000;0;69;America/Porto_Velho;8844;3200;210000;2109.55;0.00;2373;217
32;1100809;Candeias do Jamari;Rondonia;RO;-8.79070000;-63.70050000;0;69;America/Porto_Velho;22310;8257;220000;1819.7;0.00;5318;1072
33;1100908;Castanheiras;Rondonia;RO;-11.42530000;-61.94820000;0;69;America/Porto_Velho;3233;1255;210000;1940.64;0.00;847;109
34;1100924;Chupinguaia;Rondonia;RO;-12.56110000;-60.88770000;0;69;America/Porto_Velho;9324;4281;210000;2427.05;0.00;2047;695
35;1100940;Cujubim;Rondonia;RO;-9.36065000;-62.58460000;0;69;America/Porto_Velho;14863;6114;210000;2242.95;0.00;3766;825
36;1101005;Governador Jorge Teixeira;Rondonia;RO;-10.61000000;-62.73710000;0;69;America/Porto_Velho;8001;2253;210000;2230.38;0.00;2121;228
37;1101104;Itapuã do Oeste;Rondonia;RO;-9.19687000;-63.18090000;0;69;America/Porto_Velho;8548;3257;210000;2035.49;0.00;2155;483
38;1101203;Ministro Andreazza;Rondonia;RO;-11.19600000;-61.51740000;0;69;America/Porto_Velho;6466;2254;210000;2356.05;0.00;1836;325
39;1101302;Mirante da Serra;Rondonia;RO;-11.02900000;-62.66960000;0;69;America/Porto_Velho;9235;3079;210000;2087.81;0.00;2529;680
40;1101401;Monte Negro;Rondonia;RO;-10.24580000;-63.29000000;0;69;America/Porto_Velho;11548;4496;210000;2269.14;0.00;3120;472
41;1101435;Nova União;Rondonia;RO;-10.90680000;-62.55640000;0;69;America/Porto_Velho;6200;2124;210000;1735.06;0.00;1706;125
42;1101450;Parecis;Rondonia;RO;-12.17540000;-61.60320000;0;69;America/Porto_Velho;4125;1437;210000;2133.12;0.00;1232;90
43;1101468;Pimenteiras do Oeste;Rondonia;RO;-13.48230000;-61.04710000;0;69;America/Porto_Velho;2156;708;210000;1924.13;0.00;504;90
44;1101476;Primavera de Rondônia;Rondonia;RO;-11.82950000;-61.31530000;0;69;America/Porto_Velho;3076;822;210000;1984.09;0.00;922;103
45;1101484;São Felipe D'Oeste;Rondonia;RO;-11.90230000;-61.50260000;0;69;America/Porto_Velho;5258;2056;210000;2366.88;0.00;1500;230
46;1101492;São Francisco do Guaporé;Rondonia;RO;-12.05200000;-63.56800000;0;69;America/Porto_Velho;16286;7249;210000;2036.12;0.00;4045;1032
47;1101500;Seringueiras;Rondonia;RO;-11.80550000;-63.01820000;0;69;America/Porto_Velho;11171;3744;210000;2091.53;0.00;2935;577
48;1101559;Teixeirópolis;Rondonia;RO;-10.90560000;-62.24200000;0;69;America/Porto_Velho;4256;1628;210000;2034.01;0.00;1267;159
49;1101609;Theobroma;Rondonia;RO;-10.24830000;-62.35380000;0;69;America/Porto_Velho;8113;2727;210000;2226.11;0.00;2182;301
50;1101708;Urupá;Rondonia;RO;-11.12610000;-62.36390000;0;69;America/Porto_Velho;10725;4124;210000;2120.53;0.00;3068;444
51;1101757;Vale do Anari;Rondonia;RO;-9.86215000;-62.18760000;0;69;America/Porto_Velho;7788;2857;210000;2076.36;0.00;2151;306
52;1101807;Vale do Paraíso;Rondonia;RO;-10.44650000;-62.13520000;0;69;America/Porto_Velho;6479;2324;210000;2162.32;0.00;1901;250
53;1200013;Acrelândia;Acre;AC;-9.82581000;-66.89720000;0;68;America/Rio_Branco;14021;5189;210000;1665.62;0.00;3335;595
54;1200054;Assis Brasil;Acre;AC;-10.92980000;-69.57380000;0;68;America/Rio_Branco;8100;2359;210000;1826.55;0.00;1904;303
55;1200104;Brasiléia;Acre;AC;-10.99500000;-68.74970000;0;68;America/Rio_Branco;26000;9394;210000;1805.6;0.00;6754;1152
56;1200138;Bujari;Acre;AC;-9.81528000;-67.95500000;0;68;America/Rio_Branco;12917;3273;210000;1689.45;0.00;3411;249
57;1200179;Capixaba;Acre;AC;-10.56600000;-67.68600000;0;68;America/Rio_Branco;10392;3328;210000;1561.6;0.00;2657;299
58;1200203;Cruzeiro do Sul;Acre;AC;-7.62762000;-72.67560000;0;68;America/Rio_Branco;91888;31162;210000;1939.02;0.00;22977;2309
59;1200252;Epitaciolândia;Acre;AC;-11.01880000;-68.73410000;0;68;America/Rio_Branco;18757;7277;210000;1981.9;0.00;4775;969
60;1200302;Feijó;Acre;AC;-8.17054000;-70.35100000;0;68;America/Rio_Branco;35426;9264;210000;1506.11;0.00;8088;577
61;1200328;Jordão;Acre;AC;-9.19080000;-71.95030000;0;68;America/Rio_Branco;9222;2215;210000;1645.23;0.00;1817;71
62;1200336;Mâncio Lima;Acre;AC;-7.61657000;-72.89970000;0;68;America/Rio_Branco;19294;5697;210000;1473.18;0.00;5315;171
63;1200344;Manoel Urbano;Acre;AC;-8.83291000;-69.26790000;0;68;America/Rio_Branco;11996;3073;210000;1488.89;0.00;2592;268
64;1200351;Marechal Thaumaturgo;Acre;AC;-8.93898000;-72.79970000;0;68;America/Rio_Branco;17093;4339;210000;1285.47;0.00;3917;183
65;1200385;Plácido de Castro;Acre;AC;-10.28060000;-67.13710000;0;68;America/Rio_Branco;16560;5826;210000;1858.24;0.00;4063;653
66;1200393;Porto Walter;Acre;AC;-8.26323000;-72.75370000;0;68;America/Rio_Branco;10735;2918;210000;1462.05;0.00;2308;65
67;1200401;Rio Branco;Acre;AC;-9.97499000;-67.82430000;1;68;America/Rio_Branco;364756;149601;255000;2705.32;0.00;90176;24583
68;1200427;Rodrigues Alves;Acre;AC;-7.73864000;-72.66100000;0;68;America/Rio_Branco;14938;4099;210000;1447.53;0.00;3786;149
69;1200435;Santa Rosa do Purus;Acre;AC;-9.44652000;-70.49020000;0;68;America/Rio_Branco;6723;1295;210000;1675.67;0.00;1225;64
70;1200450;Senador Guiomard;Acre;AC;-10.14970000;-67.73620000;0;68;America/Rio_Branco;21454;7525;210000;1800.06;0.00;5327;641
71;1200500;Sena Madureira;Acre;AC;-9.06596000;-68.65710000;0;68;America/Rio_Branco;41343;11534;210000;1973.55;0.00;10507;1129
72;1200609;Tarauacá;Acre;AC;-8.15697000;-70.77220000;0;68;America/Rio_Branco;43467;9038;210000;1829.68;0.00;9798;885
73;1200708;Xapuri;Acre;AC;-10.65160000;-68.49690000;0;68;America/Rio_Branco;18243;6307;210000;1662.51;0.00;4612;604
74;1200807;Porto Acre;Acre;AC;-9.58138000;-67.54780000;0;68;America/Rio_Branco;16693;5064;210000;1386.65;0.00;4319;357
75;1300029;Alvarães;Amazonas;AM;-3.22727000;-64.80070000;0;97;America/Porto_Velho;15866;4178;210000;1206.06;0.00;3085;114
76;1300060;Amaturá;Amazonas;AM;-3.37455000;-68.20050000;0;97;America/Porto_Velho;10819;2390;210000;1681.92;0.00;1966;95
77;1300086;Anamã;Amazonas;AM;-3.56697000;-61.39630000;0;97;America/Porto_Velho;9962;3188;210000;1189.11;0.00;2078;43
78;1300102;Anori;Amazonas;AM;-3.74603000;-61.65750000;0;97;America/Porto_Velho;17194;4674;210000;1442.67;0.00;3837;150
79;1300144;Apuí;Amazonas;AM;-7.19409000;-59.89600000;0;97;America/Porto_Velho;20647;6997;210000;2219,00;0.00;4397;871
80;1300201;Atalaia do Norte;Amazonas;AM;-4.37055000;-70.19670000;0;97;America/Rio_Branco;15314;3090;210000;1974.4;0.00;2959;229
81;1300300;Autazes;Amazonas;AM;-3.58574000;-59.12560000;0;92;America/Porto_Velho;41564;11293;210000;1418.47;0.00;9314;762
82;1300409;Barcelos;Amazonas;AM;-0.98337300;-62.93110000;0;97;America/Porto_Velho;18834;4126;210000;1718.09;0.00;3694;267
83;1300508;Barreirinha;Amazonas;AM;-2.79886000;-57.06790000;0;92;America/Porto_Velho;31051;7630;210000;1316.25;0.00;6214;236
84;1300607;Benjamin Constant;Amazonas;AM;-4.37768000;-70.03420000;0;97;America/Rio_Branco;37648;10015;210000;1535.93;0.00;7047;339
85;1300631;Beruri;Amazonas;AM;-3.89874000;-61.36160000;0;97;America/Porto_Velho;20718;4836;210000;1700.42;0.00;4108;216
86;1300680;Boa Vista do Ramos;Amazonas;AM;-2.97409000;-57.58730000;0;92;America/Porto_Velho;23785;6782;210000;1149.18;0.00;4201;198
87;1300706;Boca do Acre;Amazonas;AM;-8.74232000;-67.39190000;0;97;America/Rio_Branco;35447;9706;210000;1636.89;0.00;8930;598
88;1300805;Borba;Amazonas;AM;-4.39154000;-59.58740000;0;92;America/Porto_Velho;33080;8317;210000;1391.86;0.00;7228;413
89;1300839;Caapiranga;Amazonas;AM;-3.31537000;-61.22060000;0;92;America/Porto_Velho;13469;3040;210000;1339.72;0.00;2551;204
90;1300904;Canutama;Amazonas;AM;-6.52582000;-64.39530000;0;97;America/Porto_Velho;16869;4178;210000;1353.6;0.00;4036;140
91;1301001;Carauari;Amazonas;AM;-4.88161000;-66.90860000;0;97;America/Porto_Velho;28742;8765;210000;1317.24;0.00;6679;256
92;1301100;Careiro;Amazonas;AM;-3.76803000;-60.36900000;0;92;America/Porto_Velho;30792;8845;210000;1578.3;0.00;7461;765
93;1301159;Careiro da Várzea;Amazonas;AM;-3.31400000;-59.55570000;0;92;America/Porto_Velho;19637;5816;210000;1220.87;0.00;5277;175
94;1301209;Coari;Amazonas;AM;-4.09412000;-63.14410000;0;97;America/Porto_Velho;70616;19281;210000;1489.01;0.00;14821;1348
95;1301308;Codajás;Amazonas;AM;-3.83053000;-62.06580000;0;97;America/Porto_Velho;23549;6700;210000;1336.82;0.00;4860;398
96;1301407;Eirunepé;Amazonas;AM;-6.65677000;-69.86620000;0;97;America/Rio_Branco;33170;9402;210000;1376.43;0.00;7284;486
97;1301506;Envira;Amazonas;AM;-7.43789000;-70.02810000;0;97;America/Rio_Branco;17186;4573;210000;1402.25;0.00;3815;225
98;1301605;Fonte Boa;Amazonas;AM;-2.52342000;-66.09420000;0;97;America/Porto_Velho;25871;7599;210000;1409.88;0.00;4991;212
99;1301654;Guajará;Amazonas;AM;-7.53797000;-72.59070000;0;97;America/Rio_Branco;13815;4144;210000;1240.14;0.00;3270;126
100;1301704;Humaitá;Amazonas;AM;-7.51171000;-63.03270000;0;97;America/Porto_Velho;57473;18465;210000;2041.22;0.00;11664;1933
101;1301803;Ipixuna;Amazonas;AM;-7.04791000;-71.69340000;0;97;America/Rio_Branco;24311;6443;210000;1196.6;0.00;4519;92
102;1301852;Iranduba;Amazonas;AM;-3.27479000;-60.19000000;0;92;America/Porto_Velho;61163;21983;210000;1591.33;0.00;14406;1618
103;1301902;Itacoatiara;Amazonas;AM;-3.13861000;-58.44490000;0;92;America/Porto_Velho;103598;31392;225000;1650.38;0.00;22492;2971
104;1301951;Itamarati;Amazonas;AM;-6.43852000;-68.24370000;0;97;America/Rio_Branco;10937;2523;210000;1554.8;0.00;2205;58
105;1302009;Itapiranga;Amazonas;AM;-2.74081000;-58.02930000;0;92;America/Porto_Velho;10162;2973;210000;1489.61;0.00;2198;233
106;1302108;Japurá;Amazonas;AM;-1.88237000;-66.92910000;0;97;America/Porto_Velho;8858;3073;210000;2033.35;0.00;1502;113
107;1302207;Juruá;Amazonas;AM;-3.48438000;-66.07180000;0;97;America/Porto_Velho;10742;2499;210000;1430.73;0.00;2254;171
108;1302306;Jutaí;Amazonas;AM;-2.75814000;-66.75950000;0;97;America/Rio_Branco;25172;6320;210000;1573.91;0.00;4423;268
109;1302405;Lábrea;Amazonas;AM;-7.26413000;-64.79480000;0;97;America/Rio_Branco;45448;11515;210000;1590.46;0.00;9885;596
110;1302504;Manacapuru;Amazonas;AM;-3.29066000;-60.62160000;0;92;America/Porto_Velho;101883;30120;225000;1501.2;0.00;21833;2999
111;1302553;Manaquiri;Amazonas;AM;-3.44078000;-60.46120000;0;92;America/Porto_Velho;17107;4182;210000;1305.13;0.00;4099;389
112;1302603;Manaus;Amazonas;AM;-3.11866000;-60.02120000;1;92;America/Porto_Velho;2063689;811436;270000;2646.61;0.00;417862;164133
113;1302702;Manicoré;Amazonas;AM;-5.80462000;-61.28950000;0;97;America/Porto_Velho;53914;16480;210000;1644.44;0.00;10770;883
114;1302801;Maraã;Amazonas;AM;-1.85313000;-65.57300000;0;97;America/Porto_Velho;15529;4191;210000;1351.71;0.00;2800;49
115;1302900;Maués;Amazonas;AM;-3.39289000;-57.70670000;0;92;America/Porto_Velho;61204;13678;210000;1224.2;0.00;11041;930
116;1303007;Nhamundá;Amazonas;AM;-2.20793000;-56.71120000;0;92;America/Porto_Velho;20136;4074;210000;1318.62;0.00;4126;291
117;1303106;Nova Olinda do Norte;Amazonas;AM;-3.90037000;-59.09400000;0;92;America/Porto_Velho;27062;7554;210000;1228.91;0.00;5582;430
118;1303205;Novo Airão;Amazonas;AM;-2.63637000;-60.94340000;0;92;America/Porto_Velho;15761;4396;210000;1702.64;0.00;3494;338
119;1303304;Novo Aripuanã;Amazonas;AM;-5.12593000;-60.37320000;0;97;America/Porto_Velho;23818;7381;210000;1453.5;0.00;4310;198
120;1303403;Parintins;Amazonas;AM;-2.63741000;-56.72900000;0;92;America/Porto_Velho;96372;32603;225000;1659.39;0.00;19341;1929
121;1303502;Pauini;Amazonas;AM;-7.71311000;-66.99200000;0;97;America/Rio_Branco;19373;3942;210000;1431.31;0.00;3736;141
122;1303536;Presidente Figueiredo;Amazonas;AM;-2.02981000;-60.02340000;0;92;America/Porto_Velho;30668;12154;210000;1917.21;0.00;6281;1622
123;1303569;Rio Preto da Eva;Amazonas;AM;-2.70450000;-59.68580000;0;92;America/Porto_Velho;24936;8941;210000;1579.43;0.00;5583;891
124;1303601;Santa Isabel do Rio Negro;Amazonas;AM;-0.41082400;-65.00920000;0;97;America/Porto_Velho;14164;2312;210000;1580.87;0.00;2514;121
125;1303700;Santo Antônio do Içá;Amazonas;AM;-3.09544000;-67.94630000;0;97;America/Porto_Velho;28211;6890;210000;1382.11;0.00;4889;214
126;1303809;São Gabriel da Cachoeira;Amazonas;AM;-0.11909000;-67.08400000;0;97;America/Porto_Velho;51795;10370;210000;1948.88;0.00;8714;1141
127;1303908;São Paulo de Olivença;Amazonas;AM;-3.47292000;-68.96460000;0;97;America/Rio_Branco;32967;5259;210000;1341.03;0.00;5595;183
128;1303957;São Sebastião do Uatumã;Amazonas;AM;-2.55915000;-57.87310000;0;92;America/Porto_Velho;11670;3703;210000;1448.83;0.00;2156;305
129;1304005;Silves;Amazonas;AM;-2.81748000;-58.24800000;0;92;America/Porto_Velho;11559;2777;210000;1389.64;0.00;2465;137
130;1304062;Tabatinga;Amazonas;AM;-4.24160000;-69.93830000;0;97;America/Rio_Branco;66764;21323;210000;1629.15;0.00;10723;1990
131;1304104;Tapauá;Amazonas;AM;-5.62085000;-63.18080000;0;97;America/Porto_Velho;19599;6024;210000;1246.13;0.00;4470;167
132;1304203;Tefé;Amazonas;AM;-3.36822000;-64.71930000;0;97;America/Porto_Velho;73669;23513;210000;1807.31;0.00;14075;2182
133;1304237;Tonantins;Amazonas;AM;-2.86582000;-67.79190000;0;97;America/Porto_Velho;19247;3579;210000;1182.22;0.00;3164;104
134;1304260;Uarini;Amazonas;AM;-2.99609000;-65.11330000;0;97;America/Porto_Velho;14431;4591;210000;1157.25;0.00;2734;169
135;1304302;Urucará;Amazonas;AM;-2.52936000;-57.75380000;0;92;America/Porto_Velho;18631;6207;210000;1339.61;0.00;3674;340
136;1304401;Urucurituba;Amazonas;AM;-3.12841000;-58.14960000;0;92;America/Porto_Velho;23945;6626;210000;1375.63;0.00;4520;247
137;1400027;Amajari;Roraima;RR;3.64571000;-61.36920000;0;95;America/Porto_Velho;13927;3039;210000;1644.49;0.00;2343;222
138;1400050;Alto Alegre;Roraima;RR;2.98858000;-61.30720000;0;95;America/Porto_Velho;21096;3430;210000;2002.01;0.00;3957;370
139;1400100;Boa Vista;Roraima;RR;2.82384000;-60.67530000;1;95;America/Porto_Velho;413486;173156;255000;2719.51;0.00;72587;37326
140;1400159;Bonfim;Roraima;RR;3.36161000;-59.83330000;0;95;America/Porto_Velho;13923;3480;210000;1485.93;0.00;2323;290
141;1400175;Cantá;Roraima;RR;2.60994000;-60.60580000;0;95;America/Porto_Velho;18682;5606;210000;1801.59;0.00;4216;387
142;1400209;Caracaraí;Roraima;RR;1.82766000;-61.13040000;0;95;America/Porto_Velho;20957;5989;210000;1625.99;0.00;5155;367
143;1400233;Caroebe;Roraima;RR;0.88420300;-59.69590000;0;95;America/Porto_Velho;10656;3854;210000;1843.09;0.00;2352;448
144;1400282;Iracema;Roraima;RR;2.18305000;-61.04150000;0;95;America/Porto_Velho;10023;3443;210000;1748.8;0.00;2181;237
145;1400308;Mucajaí;Roraima;RR;2.43998000;-60.90960000;0;95;America/Porto_Velho;18095;6022;210000;1619.67;0.00;3871;643
146;1400407;Normandia;Roraima;RR;3.88530000;-59.62040000;0;95;America/Porto_Velho;13986;2588;210000;1728.43;0.00;2282;171
147;1400456;Pacaraima;Roraima;RR;4.47990000;-61.14770000;0;95;America/Porto_Velho;19305;5012;210000;1603.12;0.00;2548;973
148;1400472;Rorainópolis;Roraima;RR;0.93995600;-60.43890000;0;95;America/Porto_Velho;32647;11015;210000;1908.36;0.00;7056;1936
149;1400506;São João da Baliza;Roraima;RR;0.95165900;-59.91330000;0;95;America/Porto_Velho;8858;3453;210000;1797.89;0.00;1811;442
150;1400605;São Luiz;Roraima;RR;1.01019000;-60.04190000;0;95;America/Porto_Velho;7315;2420;210000;1776.53;0.00;1709;345
151;1400704;Uiramutã;Roraima;RR;4.60314000;-60.18150000;0;95;America/Porto_Velho;13751;1175;210000;1807.65;0.00;2152;46
152;1500107;Abaetetuba;Pará;PA;-1.72183000;-48.87880000;0;91;America/Sao_Paulo;158188;55211;225000;1491.3;0.00;37480;3123
153;1500131;Abel Figueiredo;Pará;PA;-4.95333000;-48.39330000;0;94;America/Sao_Paulo;6136;2407;210000;1732.1;0.00;1541;256
154;1500206;Acará;Pará;PA;-1.95383000;-48.19850000;0;91;America/Sao_Paulo;59023;14897;210000;1118.09;0.00;15870;515
155;1500305;Afuá;Pará;PA;-0.15487400;-50.38610000;0;91;America/Sao_Paulo;37765;8213;210000;1413.92;0.00;8457;236
156;1500347;Água Azul do Norte;Pará;PA;-6.79053000;-50.47910000;0;94;America/Sao_Paulo;18080;6325;210000;2075.73;0.00;3437;873
157;1500404;Alenquer;Pará;PA;-1.94623000;-54.73840000;0;93;America/Sao_Paulo;69377;18325;210000;1272.11;0.00;14851;1125
158;1500503;Almeirim;Pará;PA;-1.52904000;-52.57880000;0;93;America/Sao_Paulo;34280;9792;210000;1822.91;0.00;6579;1732
159;1500602;Altamira;Pará;PA;-3.20407000;-52.21000000;0;93;America/Sao_Paulo;126279;52392;225000;2491.17;0.00;29672;8109
160;1500701;Anajás;Pará;PA;-0.99681100;-49.93540000;0;91;America/Sao_Paulo;28011;6566;210000;1464.66;0.00;5739;265
161;1500800;Ananindeua;Pará;PA;-1.36391000;-48.37430000;0;91;America/Sao_Paulo;478778;207042;255000;2188.16;0.00;116566;30502
162;1500859;Anapu;Pará;PA;-3.46985000;-51.20030000;0;91;America/Sao_Paulo;31850;9607;210000;1912.77;0.00;7164;1172
163;1500909;Augusto Corrêa;Pará;PA;-1.05109000;-46.61470000;0;91;America/Sao_Paulo;44573;8961;210000;1177.15;0.00;11331;526
164;1500958;Aurora do Pará;Pará;PA;-2.14898000;-47.56770000;0;91;America/Sao_Paulo;23774;6289;210000;1246.1;0.00;5529;531
165;1501006;Aveiro;Pará;PA;-3.60841000;-55.31990000;0;93;America/Sao_Paulo;18290;3535;210000;1388.15;0.00;4325;112
166;1501105;Bagre;Pará;PA;-1.90057000;-50.19870000;0;91;America/Sao_Paulo;31892;6208;210000;1231.71;0.00;5295;213
167;1501204;Baião;Pará;PA;-2.79021000;-49.66940000;0;91;America/Sao_Paulo;51641;10320;210000;1223.67;0.00;10966;691
168;1501253;Bannach;Pará;PA;-7.34779000;-50.39590000;0;94;America/Sao_Paulo;4031;1502;210000;2236.98;0.00;857;164
169;1501303;Barcarena;Pará;PA;-1.51187000;-48.61950000;0;91;America/Sao_Paulo;126650;49517;225000;1959.18;0.00;31225;4838
170;1501402;Belém;Pará;PA;-1.45540000;-48.48980000;1;91;America/Sao_Paulo;1303403;544632;270000;2986.88;0.00;314320;84264
171;1501451;Belterra;Pará;PA;-2.63609000;-54.93740000;0;93;America/Sao_Paulo;18099;5281;210000;1536.1;0.00;4637;271
172;1501501;Benevides;Pará;PA;-1.36183000;-48.24340000;0;91;America/Sao_Paulo;63567;23368;225000;1602.09;0.00;16188;2874
173;1501576;Bom Jesus do Tocantins;Pará;PA;-5.04240000;-48.60470000;0;94;America/Sao_Paulo;18005;6796;210000;1944.2;0.00;4063;532
174;1501600;Bonito;Pará;PA;-1.36745000;-47.30660000;0;91;America/Sao_Paulo;12622;4292;210000;1333.53;0.00;3564;402
175;1501709;Bragança;Pará;PA;-1.06126000;-46.78260000;0;91;America/Sao_Paulo;123082;45731;225000;1486.54;0.00;30820;3725
176;1501725;Brasil Novo;Pará;PA;-3.29792000;-52.53400000;0;93;America/Sao_Paulo;24718;7120;210000;1843.85;0.00;5031;1182
177;1501758;Brejo Grande do Araguaia;Pará;PA;-5.69822000;-48.41030000;0;94;America/Sao_Paulo;6783;2004;210000;1676.27;0.00;1672;209
178;1501782;Breu Branco;Pará;PA;-3.77191000;-49.57350000;0;94;America/Sao_Paulo;45712;14324;210000;1550.16;0.00;10622;1660
179;1501808;Breves;Pará;PA;-1.68036000;-50.47910000;0;91;America/Sao_Paulo;106968;27331;225000;1619.99;0.00;21185;1403
180;1501907;Bujaru;Pará;PA;-1.51762000;-48.03810000;0;91;America/Sao_Paulo;24383;6300;210000;1028.34;0.00;6299;207
181;1501956;Cachoeira do Piriá;Pará;PA;-1.75974000;-46.54590000;0;91;America/Sao_Paulo;19630;6626;210000;1062.53;0.00;4799;377
182;1502004;Cachoeira do Arari;Pará;PA;-1.01226000;-48.95030000;0;91;America/Sao_Paulo;23981;4938;210000;1035.26;0.00;6007;343
183;1502103;Cametá;Pará;PA;-2.24295000;-49.49790000;0;91;America/Sao_Paulo;134184;38916;225000;1230.95;0.00;29888;1361
184;1502152;Canaã dos Carajás;Pará;PA;-6.49659000;-49.87760000;0;94;America/Sao_Paulo;77079;34530;210000;2739.62;0.00;14649;7692
185;1502202;Capanema;Pará;PA;-1.20529000;-47.17780000;0;91;America/Sao_Paulo;70394;27724;210000;1713.23;0.00;18155;3779
186;1502301;Capitão Poço;Pará;PA;-1.74785000;-47.06290000;0;91;America/Sao_Paulo;56506;20558;210000;1272.37;0.00;15184;1830
187;1502400;Castanhal;Pará;PA;-1.29797000;-47.91670000;0;91;America/Sao_Paulo;192256;74421;235000;2095.25;0.00;47907;11685
188;1502509;Chaves;Pará;PA;-0.16415400;-49.98700000;0;91;America/Sao_Paulo;20757;5337;210000;1230.19;0.00;4286;128
189;1502608;Colares;Pará;PA;-0.93642300;-48.28030000;0;91;America/Sao_Paulo;12868;3373;210000;1281.04;0.00;3668;196
190;1502707;Conceição do Araguaia;Pará;PA;-8.26136000;-49.26890000;0;94;America/Sao_Paulo;44617;16331;210000;2036.93;0.00;11232;2428
191;1502756;Concórdia do Pará;Pará;PA;-1.99238000;-47.94220000;0;91;America/Sao_Paulo;26881;9908;210000;1295.58;0.00;6737;716
192;1502764;Cumaru do Norte;Pará;PA;-7.81097000;-50.76980000;0;94;America/Sao_Paulo;14036;5159;210000;2419.93;0.00;2592;426
193;1502772;Curionópolis;Pará;PA;-6.09965000;-49.60680000;0;94;America/Sao_Paulo;19950;8016;210000;2024.49;0.00;4750;977
194;1502806;Curralinho;Pará;PA;-1.81179000;-49.79520000;0;91;America/Sao_Paulo;33903;6726;210000;1296.9;0.00;7648;220
195;1502855;Curuá;Pará;PA;-1.88775000;-55.11680000;0;93;America/Sao_Paulo;14117;3729;210000;1176.51;0.00;3479;181
196;1502905;Curuçá;Pará;PA;-0.73321400;-47.85150000;0;91;America/Sao_Paulo;41262;9521;210000;1229.5;0.00;10919;590
197;1502939;Dom Eliseu;Pará;PA;-4.19944000;-47.82450000;0;94;America/Sao_Paulo;58484;19238;210000;1744.74;0.00;10630;3622
198;1502954;Eldorado do Carajás;Pará;PA;-6.10389000;-49.35530000;0;94;America/Sao_Paulo;28192;10101;210000;1909.39;0.00;6632;1318
199;1503002;Faro;Pará;PA;-2.16805000;-56.74050000;0;93;America/Sao_Paulo;8728;2094;210000;1469.34;0.00;1926;62
200;1503044;Floresta do Araguaia;Pará;PA;-7.55335000;-49.71250000;0;94;America/Sao_Paulo;17898;5124;210000;1851.65;0.00;4541;768
201;1503077;Garrafão do Norte;Pará;PA;-1.92986000;-47.05050000;0;91;America/Sao_Paulo;24703;9837;210000;958.94;0.00;6531;552
202;1503093;Goianésia do Pará;Pará;PA;-3.84338000;-49.09740000;0;94;America/Sao_Paulo;26362;9149;210000;1814.3;0.00;6521;954
203;1503101;Gurupá;Pará;PA;-1.41412000;-51.63380000;0;91;America/Sao_Paulo;31786;9385;210000;1463.61;0.00;7010;221
204;1503200;Igarapé-Açu;Pará;PA;-1.12539000;-47.62600000;0;91;America/Sao_Paulo;35797;10936;210000;1453.46;0.00;9762;950
205;1503309;Igarapé-Miri;Pará;PA;-1.97533000;-48.95750000;0;91;America/Sao_Paulo;64831;20076;210000;1243.65;0.00;15293;831
206;1503408;Inhangapi;Pará;PA;-1.43490000;-47.91140000;0;91;America/Sao_Paulo;10325;3268;210000;1203.24;0.00;2786;153
207;1503457;Ipixuna do Pará;Pará;PA;-2.55992000;-47.50590000;0;91;America/Sao_Paulo;30329;7328;210000;1478.67;0.00;6952;979
208;1503507;Irituia;Pará;PA;-1.76984000;-47.44600000;0;91;America/Sao_Paulo;30955;9320;210000;1041.5;0.00;8531;380
209;1503606;Itaituba;Pará;PA;-4.26670000;-55.99260000;0;93;America/Sao_Paulo;123314;49063;225000;2204.49;0.00;26217;7352
210;1503705;Itupiranga;Pará;PA;-5.13272000;-49.33580000;0;94;America/Sao_Paulo;49754;13835;210000;1430.44;0.00;10948;1693
211;1503754;Jacareacanga;Pará;PA;-6.21469000;-57.75440000;0;93;America/Sao_Paulo;24042;6453;210000;2445.5;0.00;3726;813
212;1503804;Jacundá;Pará;PA;-4.44617000;-49.11530000;0;94;America/Sao_Paulo;37707;14176;210000;1732.88;0.00;9646;1713
213;1503903;Juruti;Pará;PA;-2.16347000;-56.08890000;0;93;America/Sao_Paulo;50881;14148;210000;1883.29;0.00;10549;878
214;1504000;Limoeiro do Ajuru;Pará;PA;-1.89850000;-49.39030000;0;91;America/Sao_Paulo;29569;6736;210000;1150.35;0.00;6795;174
215;1504059;Mãe do Rio;Pará;PA;-2.05683000;-47.56010000;0;91;America/Sao_Paulo;34353;11127;210000;1750.1;0.00;7453;1618
216;1504109;Magalhães Barata;Pará;PA;-0.80339100;-47.60140000;0;91;America/Sao_Paulo;8115;1894;210000;1294.5;0.00;2211;109
217;1504208;Marabá;Pará;PA;-5.38075000;-49.13270000;0;94;America/Sao_Paulo;266533;105439;235000;2361.56;0.00;57199;22492
218;1504307;Maracanã;Pará;PA;-0.77889900;-47.45200000;0;91;America/Sao_Paulo;25971;6786;210000;1303.36;0.00;7157;292
219;1504406;Marapanim;Pará;PA;-0.71470200;-47.70340000;0;91;America/Sao_Paulo;26573;5782;210000;1072.04;0.00;7630;395
220;1504422;Marituba;Pará;PA;-1.36002000;-48.34210000;0;91;America/Sao_Paulo;111785;40531;240000;1743,00;0.00;28580;5474
221;1504455;Medicilândia;Pará;PA;-3.44637000;-52.88750000;0;93;America/Sao_Paulo;27094;8777;210000;1454.92;0.00;5843;842
222;1504505;Melgaço;Pará;PA;-1.80320000;-50.71490000;0;91;America/Sao_Paulo;27881;5980;210000;1407.28;0.00;5307;134
223;1504604;Mocajuba;Pará;PA;-2.58310000;-49.50420000;0;91;America/Sao_Paulo;27198;9006;210000;1318.98;0.00;5901;593
224;1504703;Moju;Pará;PA;-1.88993000;-48.76680000;0;91;America/Sao_Paulo;84094;24524;210000;1399.65;0.00;21336;2008
225;1504752;Mojuí dos Campos;Pará;PA;-2.68220000;-54.64250000;0;93;America/Sao_Paulo;23501;7831;210000;1414.43;0.00;6474;520
226;1504802;Monte Alegre;Pará;PA;-1.99768000;-54.07240000;0;93;America/Sao_Paulo;60012;19134;210000;1265.76;0.00;15735;1174
227;1504901;Muaná;Pará;PA;-1.53936000;-49.22240000;0;91;America/Sao_Paulo;45368;10436;210000;1180.87;0.00;9845;318
228;1504950;Nova Esperança do Piriá;Pará;PA;-2.26693000;-46.97310000;0;91;America/Sao_Paulo;20478;5927;210000;1179.22;0.00;4799;540
229;1504976;Nova Ipixuna;Pará;PA;-4.91622000;-49.08220000;0;94;America/Sao_Paulo;13955;4884;210000;1733.51;0.00;3768;404
230;1505007;Nova Timboteua;Pará;PA;-1.20874000;-47.39210000;0;91;America/Sao_Paulo;12806;3630;210000;1359.4;0.00;3911;317
231;1505031;Novo Progresso;Pará;PA;-7.14347000;-55.37860000;0;93;America/Sao_Paulo;33638;13022;210000;2687.56;0.00;6716;2887
232;1505064;Novo Repartimento;Pará;PA;-4.24749000;-49.94990000;0;94;America/Sao_Paulo;60732;18827;210000;1630.64;0.00;14573;1939
233;1505106;Óbidos;Pará;PA;-1.90107000;-55.52080000;0;93;America/Sao_Paulo;52229;16496;210000;1259.62;0.00;12108;1003
234;1505205;Oeiras do Pará;Pará;PA;-2.00358000;-49.86280000;0;91;America/Sao_Paulo;33844;7900;210000;1171.85;0.00;7500;241
235;1505304;Oriximiná;Pará;PA;-1.75989000;-55.85790000;0;93;America/Sao_Paulo;68294;21715;210000;1635.42;0.00;14392;1543
236;1505403;Ourém;Pará;PA;-1.54168000;-47.11260000;0;91;America/Sao_Paulo;17855;5746;210000;1278.26;0.00;4931;373
237;1505437;Ourilândia do Norte;Pará;PA;-6.75290000;-51.08580000;0;94;America/Sao_Paulo;32467;11502;210000;2191.08;0.00;7472;1935
238;1505486;Pacajá;Pará;PA;-3.83542000;-50.63990000;0;91;America/Sao_Paulo;41097;10737;210000;1709.95;0.00;9734;1205
239;1505494;Palestina do Pará;Pará;PA;-5.74027000;-48.31810000;0;94;America/Sao_Paulo;6885;2299;210000;1632.75;0.00;1700;226
240;1505502;Paragominas;Pará;PA;-3.00212000;-47.35270000;0;91;America/Sao_Paulo;105550;41118;225000;2136.5;0.00;23600;7150
241;1505536;Parauapebas;Pará;PA;-6.06781000;-49.90370000;0;94;America/Sao_Paulo;267836;113090;235000;2733.19;0.00;51979;28392
242;1505551;Pau D'Arco;Pará;PA;-1.59772000;-46.92680000;0;94;America/Sao_Paulo;6931;2097;210000;1762.84;0.00;1646;214
243;1505601;Peixe-Boi;Pará;PA;-1.19382000;-47.32400000;0;91;America/Sao_Paulo;8285;3126;210000;1217.63;0.00;2519;187
244;1505635;Piçarra;Pará;PA;-6.43778000;-48.87160000;0;94;America/Sao_Paulo;12832;4587;210000;1888.14;0.00;2807;495
245;1505650;Placas;Pará;PA;-3.86813000;-54.21240000;0;93;America/Sao_Paulo;18668;5026;210000;1971.76;0.00;4369;615
246;1505700;Ponta de Pedras;Pará;PA;-1.39587000;-48.86610000;0;91;America/Sao_Paulo;24984;7038;210000;1163.97;0.00;5887;301
247;1505809;Portel;Pará;PA;-1.93639000;-50.81940000;0;91;America/Sao_Paulo;62503;15837;210000;1314.95;0.00;12171;532
248;1505908;Porto de Moz;Pará;PA;-1.74691000;-52.23610000;0;93;America/Sao_Paulo;40597;8229;210000;1490.1;0.00;8010;507
249;1506005;Prainha;Pará;PA;-1.79800000;-53.47790000;0;93;America/Sao_Paulo;35577;9111;210000;959.19;0.00;7591;562
250;1506104;Primavera;Pará;PA;-0.94543900;-47.12530000;0;91;America/Sao_Paulo;10851;2726;210000;1618.75;0.00;3140;218
251;1506112;Quatipuru;Pará;PA;-0.89960400;-47.01340000;0;91;America/Sao_Paulo;11524;3459;210000;1096.6;0.00;3255;150
252;1506138;Redenção;Pará;PA;-8.02529000;-50.03170000;0;94;America/Sao_Paulo;85597;38364;210000;2425.72;0.00;20444;5634
253;1506161;Rio Maria;Pará;PA;-7.31236000;-50.03790000;0;94;America/Sao_Paulo;18384;6736;210000;2108.17;0.00;4415;1265
254;1506187;Rondon do Pará;Pará;PA;-4.77793000;-48.06700000;0;94;America/Sao_Paulo;53143;21572;210000;1888.9;0.00;10760;2941
255;1506195;Rurópolis;Pará;PA;-4.10028000;-54.90920000;0;93;America/Sao_Paulo;35769;10284;210000;1614.25;0.00;6976;1274
256;1506203;Salinópolis;Pará;PA;-0.63081500;-47.34650000;0;91;America/Sao_Paulo;44772;17754;210000;1566.16;0.00;11330;1310
257;1506302;Salvaterra;Pará;PA;-0.75844400;-48.51390000;0;91;America/Sao_Paulo;24129;6650;210000;1439.12;0.00;6552;470
258;1506351;Santa Bárbara do Pará;Pará;PA;-1.19219000;-48.23800000;0;91;America/Sao_Paulo;21087;7527;210000;1367.59;0.00;5836;527
259;1506401;Santa Cruz do Arari;Pará;PA;-0.66101900;-49.17710000;0;91;America/Sao_Paulo;7445;1697;210000;1259.58;0.00;1649;72
260;1506500;Santa Izabel do Pará;Pará;PA;-1.29686000;-48.16060000;0;91;America/Sao_Paulo;73019;24919;210000;1727.99;0.00;16629;3050
261;1506559;Santa Luzia do Pará;Pará;PA;-1.52147000;-46.90080000;0;91;America/Sao_Paulo;20370;6745;210000;1278.35;0.00;5353;485
262;1506583;Santa Maria das Barreiras;Pará;PA;-8.85784000;-49.72150000;0;94;America/Sao_Paulo;16548;7056;210000;2258.67;0.00;3938;682
263;1506609;Santa Maria do Pará;Pará;PA;-1.35392000;-47.57120000;0;91;America/Sao_Paulo;24624;9223;210000;1384.14;0.00;7091;774
264;1506708;Santana do Araguaia;Pará;PA;-9.32810000;-50.35000000;0;94;America/Sao_Paulo;32413;13295;210000;2244.78;0.00;7093;1837
265;1506807;Santarém;Pará;PA;-2.43849000;-54.69960000;0;93;America/Sao_Paulo;331942;124406;255000;2095.92;0.00;70955;19009
266;1506906;Santarém Novo;Pará;PA;-0.93097000;-47.38550000;0;91;America/Sao_Paulo;6116;1912;210000;1395.1;0.00;1783;79
267;1507003;Santo Antônio do Tauá;Pará;PA;-1.15220000;-48.13140000;0;91;America/Sao_Paulo;27461;8707;210000;1324.21;0.00;7480;608
268;1507102;São Caetano de Odivelas;Pará;PA;-0.74729300;-48.02460000;0;91;America/Sao_Paulo;16666;4245;210000;1322.64;0.00;4618;296
269;1507151;São Domingos do Araguaia;Pará;PA;-5.53732000;-48.73660000;0;94;America/Sao_Paulo;21092;7567;210000;1873.27;0.00;5049;1053
270;1507201;São Domingos do Capim;Pará;PA;-1.68768000;-47.76650000;0;91;America/Sao_Paulo;30599;8160;210000;985.85;0.00;7618;224
271;1507300;São Félix do Xingu;Pará;PA;-6.64254000;-51.99040000;0;94;America/Sao_Paulo;65418;24250;210000;2156.02;0.00;14109;3855
272;1507409;São Francisco do Pará;Pará;PA;-1.16963000;-47.79170000;0;91;America/Sao_Paulo;14894;4275;210000;1371.46;0.00;4240;271
273;1507458;São Geraldo do Araguaia;Pará;PA;-6.39471000;-48.55920000;0;94;America/Sao_Paulo;24255;8388;210000;1839.3;0.00;5711;1142
274;1507466;São João da Ponta;Pará;PA;-0.85788500;-47.91800000;0;91;America/Sao_Paulo;4430;971;210000;1008.78;0.00;1353;37
275;1507474;São João de Pirabas;Pará;PA;-0.78022200;-47.18100000;0;91;America/Sao_Paulo;20689;6089;210000;1165.36;0.00;5730;392
276;1507508;São João do Araguaia;Pará;PA;-5.36334000;-48.79260000;0;94;America/Sao_Paulo;13664;3522;210000;1439.11;0.00;3488;265
277;1507607;São Miguel do Guamá;Pará;PA;-1.61307000;-47.47840000;0;91;America/Sao_Paulo;52894;18299;210000;1408.77;0.00;12979;2172
278;1507706;São Sebastião da Boa Vista;Pará;PA;-1.71597000;-49.52490000;0;91;America/Sao_Paulo;25643;6167;210000;1283.36;0.00;6191;152
279;1507755;Sapucaia;Pará;PA;-6.94018000;-49.68340000;0;94;America/Sao_Paulo;5847;1936;210000;1902.72;0.00;1039;442
280;1507805;Senador José Porfírio;Pará;PA;-4.31242000;-51.57640000;0;91;America/Sao_Paulo;22576;6260;210000;1439.02;0.00;5229;534
281;1507904;Soure;Pará;PA;-0.73032000;-48.50150000;0;91;America/Sao_Paulo;24204;7596;210000;1406.24;0.00;5854;331
282;1507953;Tailândia;Pará;PA;-2.94584000;-48.94890000;0;91;America/Sao_Paulo;72493;27489;210000;1770.54;0.00;15600;4203
283;1507961;Terra Alta;Pará;PA;-1.02963000;-47.90040000;0;91;America/Sao_Paulo;10400;3030;210000;1406.31;0.00;2934;152
284;1507979;Terra Santa;Pará;PA;-2.10443000;-56.48770000;0;93;America/Sao_Paulo;18782;5091;210000;1680.26;0.00;4334;418
285;1508001;Tomé-Açu;Pará;PA;-2.41302000;-48.14150000;0;91;America/Sao_Paulo;67585;22926;210000;1569.09;0.00;15482;2852
286;1508035;Tracuateua;Pará;PA;-1.07653000;-46.90310000;0;91;America/Sao_Paulo;28595;6529;210000;1029.08;0.00;7901;267
287;1508050;Trairão;Pará;PA;-4.57347000;-55.94290000;0;93;America/Sao_Paulo;15242;5754;210000;2002.95;0.00;3489;669
288;1508084;Tucumã;Pará;PA;-6.74687000;-51.16260000;0;94;America/Sao_Paulo;39550;15725;210000;2302.34;0.00;8646;3098
289;1508100;Tucuruí;Pará;PA;-3.76570000;-49.67730000;0;94;America/Sao_Paulo;91306;36225;210000;2169.23;0.00;19640;5886
290;1508126;Ulianópolis;Pará;PA;-3.75007000;-47.48920000;0;91;America/Sao_Paulo;37972;12631;210000;1682.61;0.00;6787;1692
291;1508159;Uruará;Pará;PA;-3.71519000;-53.73960000;0;93;America/Sao_Paulo;43558;14258;210000;1786.3;0.00;10022;2092
292;1508209;Vigia;Pará;PA;-0.86119400;-48.13860000;0;91;America/Sao_Paulo;50832;15484;210000;1365.86;0.00;13681;1207
293;1508308;Viseu;Pará;PA;-1.19124000;-46.13990000;0;91;America/Sao_Paulo;58692;13213;210000;1155.82;0.00;14802;456
294;1508357;Vitória do Xingu;Pará;PA;-2.87922000;-52.00880000;0;93;America/Sao_Paulo;15607;5551;210000;1742.74;0.00;3810;573
295;1508407;Xinguara;Pará;PA;-7.09830000;-49.94370000;0;94;America/Sao_Paulo;52893;23963;210000;2186.28;0.00;11542;4738
296;1600055;Serra do Navio;Amapá;AP;0.90135700;-52.00360000;0;96;America/Sao_Paulo;4673;1984;210000;2090.9;0.00;1091;136
297;1600105;Amapá;Amapá;AP;2.05267000;-50.79570000;0;96;America/Sao_Paulo;7943;2674;210000;1767.49;0.00;1684;125
298;1600154;Pedra Branca do Amapari;Amapá;AP;0.77742400;-51.95030000;0;96;America/Sao_Paulo;12847;4357;210000;2037.16;0.00;2488;507
299;1600204;Calçoene;Amapá;AP;2.50475000;-50.95120000;0;96;America/Sao_Paulo;10612;4116;210000;1659.14;0.00;2332;269
300;1600212;Cutias;Amapá;AP;0.97076100;-50.80050000;0;96;America/Sao_Paulo;4461;1301;210000;1412,00;0.00;967;54
301;1600238;Ferreira Gomes;Amapá;AP;0.85725600;-51.17950000;0;96;America/Sao_Paulo;6666;2155;210000;1814.25;0.00;1447;122
302;1600253;Itaubal;Amapá;AP;0.60218500;-50.69960000;0;96;America/Sao_Paulo;5599;1639;210000;1426.97;0.00;1164;89
303;1600279;Laranjal do Jari;Amapá;AP;-0.80491100;-52.45300000;0;96;America/Sao_Paulo;35114;11687;210000;1965.65;0.00;7948;1593
304;1600303;Macapá;Amapá;AP;0.03493400;-51.06940000;1;96;America/Sao_Paulo;442933;179577;255000;2637.28;0.00;92475;20931
305;1600402;Mazagão;Amapá;AP;-0.11336000;-51.28910000;0;96;America/Sao_Paulo;21924;5568;210000;1788.66;0.00;4563;307
306;1600501;Oiapoque;Amapá;AP;3.84074000;-51.83310000;0;96;America/Sao_Paulo;27482;9840;210000;2022.63;0.00;5149;1413
307;1600535;Porto Grande;Amapá;AP;0.71243000;-51.41550000;0;96;America/Sao_Paulo;17848;6348;210000;1898.57;0.00;3889;523
308;1600550;Pracuúba;Amapá;AP;1.74543000;-50.78920000;0;96;America/Sao_Paulo;3803;1119;210000;1369.73;0.00;793;45
309;1600600;Santana;Amapá;AP;-0.04543400;-51.17290000;0;96;America/Sao_Paulo;107618;41282;235000;2103.48;0.00;22241;3990
310;1600709;Tartarugalzinho;Amapá;AP;1.50652000;-50.90870000;0;96;America/Sao_Paulo;12945;3260;210000;1888.91;0.00;2796;279
311;1600808;Vitória do Jari;Amapá;AP;-0.93800000;-52.42400000;0;96;America/Sao_Paulo;11291;3122;210000;1625.32;0.00;2681;132
312;1700251;Abreulândia;Tocantins;TO;-9.62101000;-49.15180000;0;63;America/Sao_Paulo;2576;948;210000;2296.74;0.00;633;123
313;1700301;Aguiarnópolis;Tocantins;TO;-6.55409000;-47.47020000;0;63;America/Sao_Paulo;4497;1626;210000;1886.23;0.00;1138;197
314;1700350;Aliança do Tocantins;Tocantins;TO;-11.30560000;-48.93610000;0;63;America/Sao_Paulo;5147;1772;210000;1864.02;0.00;1430;256
315;1700400;Almas;Tocantins;TO;-11.57060000;-47.17920000;0;63;America/Sao_Paulo;6499;2232;210000;1676.35;0.00;1572;256
316;1700707;Alvorada;Tocantins;TO;-12.47850000;-49.12490000;0;63;America/Sao_Paulo;8802;4300;210000;2234.12;0.00;2105;826
317;1701002;Ananás;Tocantins;TO;-6.36437000;-48.07350000;0;63;America/Sao_Paulo;10325;3510;210000;1785.58;0.00;2425;443
318;1701051;Angico;Tocantins;TO;-6.39179000;-47.86110000;0;63;America/Sao_Paulo;2876;987;210000;1627.03;0.00;722;82
319;1701101;Aparecida do Rio Negro;Tocantins;TO;-9.94139000;-47.96380000;0;63;America/Sao_Paulo;4856;1965;210000;1824.71;0.00;1264;213
320;1701309;Aragominas;Tocantins;TO;-7.16005000;-48.52910000;0;63;America/Sao_Paulo;5290;1734;210000;1785.91;0.00;1471;179
321;1701903;Araguacema;Tocantins;TO;-8.80755000;-49.55690000;0;63;America/Sao_Paulo;5927;2125;210000;2168.87;0.00;1621;237
322;1702000;Araguaçu;Tocantins;TO;-12.92890000;-49.82310000;0;63;America/Sao_Paulo;8133;3414;210000;2234.64;0.00;1980;520
323;1702109;Araguaína;Tocantins;TO;-7.19238000;-48.20440000;0;63;America/Sao_Paulo;171301;78918;235000;2622.12;0.00;40240;12958
324;1702158;Araguanã;Tocantins;TO;-6.58225000;-48.63950000;0;63;America/Sao_Paulo;4310;1615;210000;1660.36;0.00;1030;229
325;1702208;Araguatins;Tocantins;TO;-5.64659000;-48.12320000;0;63;America/Sao_Paulo;31918;11609;210000;1854.82;0.00;7561;1628
326;1702307;Arapoema;Tocantins;TO;-7.65463000;-49.06370000;0;63;America/Sao_Paulo;5550;2069;210000;2080.39;0.00;1450;291
327;1702406;Arraias;Tocantins;TO;-12.92870000;-46.93590000;0;63;America/Sao_Paulo;10287;3767;210000;1870.73;0.00;2901;320
328;1702554;Augustinópolis;Tocantins;TO;-5.46863000;-47.88630000;0;63;America/Sao_Paulo;17484;6648;210000;1904.07;0.00;4166;1054
329;1702703;Aurora do Tocantins;Tocantins;TO;-12.71050000;-46.40760000;0;63;America/Sao_Paulo;3342;1182;210000;1732.25;0.00;1029;106
330;1702901;Axixá do Tocantins;Tocantins;TO;-5.61275000;-47.77010000;0;63;America/Sao_Paulo;10262;3015;210000;1577.02;0.00;2347;341
331;1703008;Babaçulândia;Tocantins;TO;-7.20923000;-47.76130000;0;63;America/Sao_Paulo;7880;2394;210000;1725.24;0.00;2333;139
332;1703057;Bandeirantes do Tocantins;Tocantins;TO;-7.75612000;-48.58360000;0;63;America/Sao_Paulo;3407;1551;210000;1999.5;0.00;795;132
333;1703073;Barra do Ouro;Tocantins;TO;-7.69593000;-47.67760000;0;63;America/Sao_Paulo;4476;1429;210000;1551.3;0.00;1052;156
334;1703107;Barrolândia;Tocantins;TO;-9.83404000;-48.72520000;0;63;America/Sao_Paulo;4846;1750;210000;1677.34;0.00;1277;294
335;1703206;Bernardo Sayão;Tocantins;TO;-7.87481000;-48.88930000;0;63;America/Sao_Paulo;4229;1710;210000;2029.69;0.00;1145;142
336;1703305;Bom Jesus do Tocantins;Tocantins;TO;-8.96306000;-48.16500000;0;63;America/Sao_Paulo;4038;1419;210000;1903.22;0.00;1038;205
337;1703602;Brasilândia do Tocantins;Tocantins;TO;-8.38918000;-48.48220000;0;63;America/Sao_Paulo;1974;675;210000;1909.52;0.00;529;71
338;1703701;Brejinho de Nazaré;Tocantins;TO;-11.00580000;-48.56830000;0;63;America/Sao_Paulo;4725;1520;210000;1651,00;0.00;1351;190
339;1703800;Buriti do Tocantins;Tocantins;TO;-5.31448000;-48.22710000;0;63;America/Sao_Paulo;10307;2857;210000;1350.68;0.00;2293;379
340;1703826;Cachoeirinha;Tocantins;TO;-6.11560000;-47.92340000;0;63;America/Sao_Paulo;1961;575;210000;1479.99;0.00;503;61
341;1703842;Campos Lindos;Tocantins;TO;-7.98956000;-46.86450000;0;63;America/Sao_Paulo;8653;2777;210000;2195.06;0.00;1935;249
342;1703867;Cariri do Tocantins;Tocantins;TO;-11.88810000;-49.16090000;0;63;America/Sao_Paulo;4007;1493;210000;1964.52;0.00;889;194
343;1703883;Carmolândia;Tocantins;TO;-7.03262000;-48.39780000;0;63;America/Sao_Paulo;2201;917;210000;1773.79;0.00;579;85
344;1703891;Carrasco Bonito;Tocantins;TO;-5.31415000;-48.03140000;0;63;America/Sao_Paulo;3318;912;210000;1310.75;0.00;874;43
345;1703909;Caseara;Tocantins;TO;-9.27612000;-49.95210000;0;63;America/Sao_Paulo;4847;1831;210000;1997.15;0.00;1125;243
346;1704105;Centenário;Tocantins;TO;-8.96103000;-47.33040000;0;63;America/Sao_Paulo;2131;557;210000;1987.35;0.00;609;60
347;1704600;Chapada de Areia;Tocantins;TO;-10.14190000;-49.14030000;0;63;America/Sao_Paulo;1501;540;210000;1541.39;0.00;450;68
348;1705102;Chapada da Natividade;Tocantins;TO;-11.61750000;-47.74860000;0;63;America/Sao_Paulo;3117;750;210000;1632.77;0.00;804;102
349;1705508;Colinas do Tocantins;Tocantins;TO;-8.05764000;-48.47570000;0;63;America/Sao_Paulo;34233;16089;210000;2397.12;0.00;7700;3162
350;1705557;Combinado;Tocantins;TO;-12.79170000;-46.53880000;0;63;America/Sao_Paulo;4756;2026;210000;1967.79;0.00;1295;295
351;1705607;Conceição do Tocantins;Tocantins;TO;-12.22090000;-47.29510000;0;63;America/Sao_Paulo;3887;1372;210000;1793.78;0.00;1020;146
352;1706001;Couto Magalhães;Tocantins;TO;-8.28411000;-49.24730000;0;63;America/Sao_Paulo;5331;1505;210000;1738.31;0.00;1409;186
353;1706100;Cristalândia;Tocantins;TO;-10.59850000;-49.19420000;0;63;America/Sao_Paulo;6371;2831;210000;2007.32;0.00;1696;329
354;1706258;Crixás do Tocantins;Tocantins;TO;-11.09940000;-48.91520000;0;63;America/Sao_Paulo;1470;610;210000;1823.57;0.00;383;57
355;1706506;Darcinópolis;Tocantins;TO;-6.71591000;-47.75970000;0;63;America/Sao_Paulo;5827;2272;210000;1543.54;0.00;1574;305
356;1707009;Dianópolis;Tocantins;TO;-11.62400000;-46.81980000;0;63;America/Sao_Paulo;17739;7001;210000;2278.51;0.00;4091;1284
357;1707108;Divinópolis do Tocantins;Tocantins;TO;-9.80018000;-49.21690000;0;63;America/Sao_Paulo;7024;3024;210000;2244.96;0.00;1828;444
358;1707207;Dois Irmãos do Tocantins;Tocantins;TO;-9.25534000;-49.06380000;0;63;America/Sao_Paulo;6327;2378;210000;1841.07;0.00;1649;233
359;1707306;Dueré;Tocantins;TO;-11.34160000;-49.27160000;0;63;America/Sao_Paulo;4248;1894;210000;1847.49;0.00;1038;229
360;1707405;Esperantina;Tocantins;TO;-5.36593000;-48.53780000;0;63;America/Sao_Paulo;7530;2437;210000;1386.16;0.00;1942;170
361;1707553;Fátima;Tocantins;TO;-10.76030000;-48.90760000;0;63;America/Sao_Paulo;3467;1281;210000;2292.31;0.00;884;183
362;1707652;Figueirópolis;Tocantins;TO;-12.13120000;-49.17480000;0;63;America/Sao_Paulo;5211;2238;210000;2068.18;0.00;1336;341
363;1707702;Filadélfia;Tocantins;TO;-7.33501000;-47.49540000;0;63;America/Sao_Paulo;7712;2453;210000;1637.89;0.00;1934;259
364;1708205;Formoso do Araguaia;Tocantins;TO;-11.79760000;-49.53160000;0;63;America/Sao_Paulo;18881;7457;210000;2243.12;0.00;4500;1116
365;1708254;Tabocão;Tocantins;TO;-9.05611000;-48.52060000;0;63;America/Sao_Paulo;3455;1393;210000;1980.69;0.00;809;164
366;1708304;Goianorte;Tocantins;TO;-8.77413000;-48.93130000;0;63;America/Sao_Paulo;4738;2083;210000;1795.71;0.00;1249;188
367;1709005;Goiatins;Tocantins;TO;-7.71478000;-47.32520000;0;63;America/Sao_Paulo;12433;3253;210000;1956.02;0.00;3124;238
368;1709302;Guaraí;Tocantins;TO;-8.83543000;-48.51140000;0;63;America/Sao_Paulo;24775;11375;210000;2523.86;0.00;6043;2117
369;1709500;Gurupi;Tocantins;TO;-11.72790000;-49.06800000;0;63;America/Sao_Paulo;85125;41821;210000;2786.34;0.00;20600;8259
370;1709807;Ipueiras;Tocantins;TO;-11.23290000;-48.46000000;0;63;America/Sao_Paulo;1590;550;210000;1899.86;0.00;395;42
371;1710508;Itacajá;Tocantins;TO;-8.39293000;-47.77260000;0;63;America/Sao_Paulo;6819;2017;210000;2026.88;0.00;1720;227
372;1710706;Itaguatins;Tocantins;TO;-5.77267000;-47.48640000;0;63;America/Sao_Paulo;5172;1560;210000;1531.14;0.00;1462;129
373;1710904;Itapiratins;Tocantins;TO;-8.37982000;-48.10720000;0;63;America/Sao_Paulo;3577;1206;210000;1746.7;0.00;967;180
374;1711100;Itaporã do Tocantins;Tocantins;TO;-8.57172000;-48.68950000;0;63;America/Sao_Paulo;2404;1042;210000;1805.45;0.00;563;80
375;1711506;Jaú do Tocantins;Tocantins;TO;-12.65090000;-48.58900000;0;63;America/Sao_Paulo;3334;1351;210000;1762.9;0.00;851;173
376;1711803;Juarina;Tocantins;TO;-8.11951000;-49.06430000;0;63;America/Sao_Paulo;2243;857;210000;1289.76;0.00;555;64
377;1711902;Lagoa da Confusão;Tocantins;TO;-10.79060000;-49.61990000;0;63;America/Sao_Paulo;15288;6371;210000;2499.79;0.00;3004;1413
378;1711951;Lagoa do Tocantins;Tocantins;TO;-10.36800000;-47.53800000;0;63;America/Sao_Paulo;3516;1161;210000;1545.6;0.00;829;132
379;1712009;Lajeado;Tocantins;TO;-9.74996000;-48.35650000;0;63;America/Sao_Paulo;3357;1289;210000;2447.75;0.00;771;202
380;1712157;Lavandeira;Tocantins;TO;-12.78470000;-46.50990000;0;63;America/Sao_Paulo;1626;583;210000;1598.86;0.00;495;40
381;1712405;Lizarda;Tocantins;TO;-9.59002000;-46.67380000;0;63;America/Sao_Paulo;2999;780;210000;1797.08;0.00;863;52
382;1712454;Luzinópolis;Tocantins;TO;-6.17794000;-47.85820000;0;63;America/Sao_Paulo;2717;767;210000;1464.09;0.00;714;93
383;1712504;Marianópolis do Tocantins;Tocantins;TO;-9.79377000;-49.65530000;0;63;America/Sao_Paulo;4615;2183;210000;2064.35;0.00;1130;232
384;1712702;Mateiros;Tocantins;TO;-10.54640000;-46.41680000;0;63;America/Sao_Paulo;2748;953;210000;1798.91;0.00;628;100
385;1712801;Maurilândia do Tocantins;Tocantins;TO;-5.95169000;-47.51250000;0;63;America/Sao_Paulo;3095;834;210000;1680.31;0.00;860;80
386;1713205;Miracema do Tocantins;Tocantins;TO;-9.56556000;-48.39300000;0;63;America/Sao_Paulo;18566;8224;210000;2257.07;0.00;4562;894
387;1713304;Miranorte;Tocantins;TO;-9.52907000;-48.59220000;0;63;America/Sao_Paulo;12701;5312;210000;2056.15;0.00;3246;807
388;1713601;Monte do Carmo;Tocantins;TO;-10.76110000;-48.11140000;0;63;America/Sao_Paulo;5694;1899;210000;1821.13;0.00;1340;182
389;1713700;Monte Santo do Tocantins;Tocantins;TO;-10.00750000;-48.99410000;0;63;America/Sao_Paulo;2396;874;210000;1727.41;0.00;620;96
390;1713809;Palmeiras do Tocantins;Tocantins;TO;-6.61658000;-47.54640000;0;63;America/Sao_Paulo;4872;1503;210000;1717.34;0.00;1252;136
391;1713957;Muricilândia;Tocantins;TO;-7.14669000;-48.60910000;0;63;America/Sao_Paulo;3367;1126;210000;1696.57;0.00;838;109
392;1714203;Natividade;Tocantins;TO;-11.70340000;-47.72230000;0;63;America/Sao_Paulo;8754;3529;210000;2026.67;0.00;2265;556
393;1714302;Nazaré;Tocantins;TO;-6.37496000;-47.66430000;0;63;America/Sao_Paulo;4521;1227;210000;1655.37;0.00;1315;94
394;1714880;Nova Olinda;Tocantins;TO;-7.63171000;-48.42520000;0;63;America/Sao_Paulo;10367;3884;210000;1686.64;0.00;2573;515
395;1715002;Nova Rosalândia;Tocantins;TO;-10.56510000;-48.91250000;0;63;America/Sao_Paulo;3362;1215;210000;1827.31;0.00;919;188
396;1715101;Novo Acordo;Tocantins;TO;-9.97063000;-47.67850000;0;63;America/Sao_Paulo;3969;1331;210000;2073.29;0.00;999;201
397;1715150;Novo Alegre;Tocantins;TO;-12.92170000;-46.57130000;0;63;America/Sao_Paulo;1846;699;210000;1743.16;0.00;591;65
398;1715259;Novo Jardim;Tocantins;TO;-11.82600000;-46.63250000;0;63;America/Sao_Paulo;2230;810;210000;1667.91;0.00;576;87
399;1715507;Oliveira de Fátima;Tocantins;TO;-10.70700000;-48.90860000;0;63;America/Sao_Paulo;1164;368;210000;2036.43;0.00;317;53
400;1715705;Palmeirante;Tocantins;TO;-7.84786000;-47.92420000;0;63;America/Sao_Paulo;4798;1541;210000;1695.9;0.00;1242;134
401;1715754;Palmeirópolis;Tocantins;TO;-13.04470000;-48.40260000;0;63;America/Sao_Paulo;6975;3056;210000;2099.48;0.00;1797;495
402;1716109;Paraíso do Tocantins;Tocantins;TO;-10.17500000;-48.88230000;0;63;America/Sao_Paulo;52360;25455;210000;2596.04;0.00;12002;5122
403;1716208;Paranã;Tocantins;TO;-12.61670000;-47.87340000;0;63;America/Sao_Paulo;10542;3494;210000;1716.6;0.00;2844;279
404;1716307;Pau D'Arco;Tocantins;TO;-7.53919000;-49.36700000;0;63;America/Sao_Paulo;4043;1372;210000;1859.72;0.00;1024;217
405;1716505;Pedro Afonso;Tocantins;TO;-8.97034000;-48.17290000;0;63;America/Sao_Paulo;14055;6058;210000;2547.95;0.00;3369;1121
406;1716604;Peixe;Tocantins;TO;-12.02540000;-48.53950000;0;63;America/Sao_Paulo;9317;3461;210000;1925.97;0.00;2496;307
407;1716653;Pequizeiro;Tocantins;TO;-8.59320000;-48.93270000;0;63;America/Sao_Paulo;4921;1803;210000;1875.82;0.00;1306;196
408;1716703;Colméia;Tocantins;TO;-8.72463000;-48.76380000;0;63;America/Sao_Paulo;8941;3735;210000;1926.52;0.00;2338;550
409;1717008;Pindorama do Tocantins;Tocantins;TO;-11.13110000;-47.57260000;0;63;America/Sao_Paulo;4478;1356;210000;1561.96;0.00;1160;141
410;1717206;Piraquê;Tocantins;TO;-6.77302000;-48.29580000;0;63;America/Sao_Paulo;2282;683;210000;1695.12;0.00;490;50
411;1717503;Pium;Tocantins;TO;-10.44200000;-49.18760000;0;63;America/Sao_Paulo;7128;3115;210000;1785.08;0.00;1606;330
412;1717800;Ponte Alta do Bom Jesus;Tocantins;TO;-12.08530000;-46.48250000;0;63;America/Sao_Paulo;4220;858;210000;1763.94;0.00;1342;98
413;1717909;Ponte Alta do Tocantins;Tocantins;TO;-10.74810000;-47.52760000;0;63;America/Sao_Paulo;7586;2856;210000;1662.5;0.00;1948;251
414;1718006;Porto Alegre do Tocantins;Tocantins;TO;-11.61800000;-47.06210000;0;63;America/Sao_Paulo;2866;931;210000;1851.47;0.00;721;101
415;1718204;Porto Nacional;Tocantins;TO;-10.70270000;-48.40800000;0;63;America/Sao_Paulo;64418;28699;210000;2374.56;0.00;14652;4681
416;1718303;Praia Norte;Tocantins;TO;-5.39281000;-47.81110000;0;63;America/Sao_Paulo;9044;2863;210000;1521.62;0.00;1844;294
417;1718402;Presidente Kennedy;Tocantins;TO;-8.54060000;-48.50620000;0;63;America/Sao_Paulo;3047;1174;210000;1625.69;0.00;867;77
418;1718451;Pugmil;Tocantins;TO;-10.42400000;-48.89570000;0;63;America/Sao_Paulo;2193;809;210000;1766.51;0.00;550;166
419;1718501;Recursolândia;Tocantins;TO;-8.72270000;-47.24210000;0;63;America/Sao_Paulo;3421;511;210000;2346.09;0.00;846;89
420;1718550;Riachinho;Tocantins;TO;-6.44005000;-48.13710000;0;63;America/Sao_Paulo;3960;1034;210000;1466.92;0.00;1038;96
421;1718659;Rio da Conceição;Tocantins;TO;-11.39490000;-46.88470000;0;63;America/Sao_Paulo;1768;595;210000;1736.42;0.00;477;54
422;1718709;Rio dos Bois;Tocantins;TO;-9.34425000;-48.52450000;0;63;America/Sao_Paulo;2738;1021;210000;1622.41;0.00;691;122
423;1718758;Rio Sono;Tocantins;TO;-9.35002000;-47.88800000;0;63;America/Sao_Paulo;4841;1515;210000;1808.82;0.00;1296;124
424;1718808;Sampaio;Tocantins;TO;-5.35423000;-47.87820000;0;63;America/Sao_Paulo;4215;1489;210000;1582.52;0.00;1078;107
425;1718840;Sandolândia;Tocantins;TO;-12.53800000;-49.92420000;0;63;America/Sao_Paulo;3723;1412;210000;2017.86;0.00;977;180
426;1718865;Santa Fé do Araguaia;Tocantins;TO;-7.15803000;-48.71650000;0;63;America/Sao_Paulo;7216;3010;210000;1860.38;0.00;1582;346
427;1718881;Santa Maria do Tocantins;Tocantins;TO;-8.80460000;-47.78870000;0;63;America/Sao_Paulo;2680;920;210000;1842.5;0.00;718;117
428;1718899;Santa Rita do Tocantins;Tocantins;TO;-10.86170000;-48.91610000;0;63;America/Sao_Paulo;2219;965;210000;2062.83;0.00;523;81
429;1718907;Santa Rosa do Tocantins;Tocantins;TO;-11.44740000;-48.12160000;0;63;America/Sao_Paulo;4653;1284;210000;1715.6;0.00;1219;192
430;1719004;Santa Tereza do Tocantins;Tocantins;TO;-10.27460000;-47.80330000;0;63;America/Sao_Paulo;2781;1117;210000;1648.25;0.00;667;79
431;1720002;Santa Terezinha do Tocantins;Tocantins;TO;-6.44438000;-47.66840000;0;63;America/Sao_Paulo;2406;660;210000;1906.06;0.00;687;33
432;1720101;São Bento do Tocantins;Tocantins;TO;-6.02580000;-47.90120000;0;63;America/Sao_Paulo;5654;1990;210000;1500.91;0.00;1354;200
433;1720150;São Félix do Tocantins;Tocantins;TO;-10.16150000;-46.66180000;0;63;America/Sao_Paulo;1783;823;210000;2092.98;0.00;460;61
434;1720200;São Miguel do Tocantins;Tocantins;TO;-5.56305000;-47.57430000;0;63;America/Sao_Paulo;13241;4813;210000;1568.44;0.00;3415;420
435;1720259;São Salvador do Tocantins;Tocantins;TO;-12.74580000;-48.23520000;0;63;America/Sao_Paulo;2385;682;210000;1620.05;0.00;695;70
436;1720309;São Sebastião do Tocantins;Tocantins;TO;-5.26131000;-48.20210000;0;63;America/Sao_Paulo;4100;1451;210000;1495.94;0.00;1036;85
437;1720499;São Valério;Tocantins;TO;-11.97430000;-48.23530000;0;63;America/Sao_Paulo;4422;1566;210000;1936.92;0.00;1258;252
438;1720655;Silvanópolis;Tocantins;TO;-11.14710000;-48.16940000;0;63;America/Sao_Paulo;5108;1986;210000;2144.07;0.00;1221;272
439;1720804;Sítio Novo do Tocantins;Tocantins;TO;-5.60120000;-47.63810000;0;63;America/Sao_Paulo;10830;3285;210000;1590.36;0.00;2689;326
440;1720853;Sucupira;Tocantins;TO;-11.99300000;-48.96850000;0;63;America/Sao_Paulo;1577;669;210000;1940.24;0.00;429;71
441;1720903;Taguatinga;Tocantins;TO;-12.40260000;-46.43700000;0;63;America/Sao_Paulo;14011;4879;210000;1868.16;0.00;3911;619
442;1720937;Taipas do Tocantins;Tocantins;TO;-12.18730000;-46.97970000;0;63;America/Sao_Paulo;2021;810;210000;1875.59;0.00;512;77
443;1720978;Talismã;Tocantins;TO;-12.79490000;-49.08960000;0;63;America/Sao_Paulo;2456;1086;210000;1893.98;0.00;607;141
444;1721000;Palmas;Tocantins;TO;-10.24000000;-48.35580000;1;63;America/Sao_Paulo;302692;159260;255000;3734.97;0.00;62696;36885
445;1721109;Tocantínia;Tocantins;TO;-9.56320000;-48.37410000;0;63;America/Sao_Paulo;7459;2262;210000;1678.18;0.00;1625;142
446;1721208;Tocantinópolis;Tocantins;TO;-6.32447000;-47.42240000;0;63;America/Sao_Paulo;22615;8345;210000;2088.07;0.00;5604;1149
447;1721257;Tupirama;Tocantins;TO;-8.97168000;-48.18830000;0;63;America/Sao_Paulo;1909;885;210000;2088.36;0.00;491;72
448;1721307;Tupiratins;Tocantins;TO;-8.39388000;-48.12770000;0;63;America/Sao_Paulo;1874;686;210000;1790.43;0.00;541;48
449;1722081;Wanderlândia;Tocantins;TO;-6.85274000;-47.96010000;0;63;America/Sao_Paulo;10522;3658;210000;1635.56;0.00;2715;383
450;1722107;Xambioá;Tocantins;TO;-6.41410000;-48.53200000;0;63;America/Sao_Paulo;10517;3938;210000;2111.28;0.00;2631;556
451;2100055;Açailândia;Maranhão;MA;-4.94714000;-47.50040000;0;99;America/Sao_Paulo;106550;41050;225000;2047.68;0.00;24569;7049
452;2100105;Afonso Cunha;Maranhão;MA;-4.13631000;-43.32750000;0;98;America/Sao_Paulo;6144;1466;210000;1443.78;0.00;1503;55
453;2100154;Água Doce do Maranhão;Maranhão;MA;-2.84048000;-42.11890000;0;98;America/Sao_Paulo;12142;3397;210000;1169.58;0.00;2987;118
454;2100204;Alcântara;Maranhão;MA;-2.39574000;-44.40620000;0;98;America/Sao_Paulo;18467;4922;210000;1208.93;0.00;5886;165
455;2100303;Aldeias Altas;Maranhão;MA;-4.62621000;-43.46890000;0;99;America/Sao_Paulo;23286;4815;210000;1448.61;0.00;5834;330
456;2100402;Altamira do Maranhão;Maranhão;MA;-4.16598000;-45.47060000;0;98;America/Sao_Paulo;6447;1985;210000;1475.85;0.00;1681;103
457;2100436;Alto Alegre do Maranhão;Maranhão;MA;-4.21300000;-44.44600000;0;99;America/Sao_Paulo;24048;7769;210000;1323.84;0.00;6502;597
458;2100477;Alto Alegre do Pindaré;Maranhão;MA;-3.66689000;-45.84210000;0;98;America/Sao_Paulo;25710;6277;210000;1413.61;0.00;6501;592
459;2100501;Alto Parnaíba;Maranhão;MA;-9.10273000;-45.93030000;0;99;America/Sao_Paulo;11109;3914;210000;1580.99;0.00;2662;358
460;2100550;Amapá do Maranhão;Maranhão;MA;-1.67524000;-46.00240000;0;98;America/Sao_Paulo;7170;1547;210000;1284.28;0.00;1870;82
461;2100600;Amarante do Maranhão;Maranhão;MA;-5.56913000;-46.74730000;0;99;America/Sao_Paulo;37085;8767;210000;1413.92;0.00;9149;692
462;2100709;Anajatuba;Maranhão;MA;-3.26269000;-44.61260000;0;98;America/Sao_Paulo;25322;6597;210000;1155.28;0.00;7791;185
463;2100808;Anapurus;Maranhão;MA;-3.67577000;-43.10140000;0;98;America/Sao_Paulo;13793;3266;210000;1611.56;0.00;3662;208
464;2100832;Apicum-Açu;Maranhão;MA;-1.45862000;-45.08640000;0;98;America/Sao_Paulo;17519;6086;210000;931.56;0.00;4453;321
465;2100873;Araguanã;Maranhão;MA;-2.94644000;-45.65890000;0;98;America/Sao_Paulo;11181;3085;210000;1210.44;0.00;2798;144
466;2100907;Araioses;Maranhão;MA;-2.89091000;-41.90500000;0;98;America/Sao_Paulo;39052;6653;210000;1182.8;0.00;10934;329
467;2100956;Arame;Maranhão;MA;-4.88347000;-46.00320000;0;99;America/Sao_Paulo;25517;6770;210000;1289.21;0.00;6068;448
468;2101004;Arari;Maranhão;MA;-3.45214000;-44.76650000;0;98;America/Sao_Paulo;29472;8288;210000;1468.91;0.00;7713;659
469;2101103;Axixá;Maranhão;MA;-2.83939000;-44.06200000;0;98;America/Sao_Paulo;11790;3604;210000;1212.63;0.00;3091;73
470;2101202;Bacabal;Maranhão;MA;-4.22447000;-44.78320000;0;99;America/Sao_Paulo;103711;40762;225000;1595.33;0.00;26229;4645
471;2101251;Bacabeira;Maranhão;MA;-2.96452000;-44.31640000;0;98;America/Sao_Paulo;16966;5414;210000;1494.99;0.00;4896;207
472;2101301;Bacuri;Maranhão;MA;-1.69650000;-45.13280000;0;98;America/Sao_Paulo;16290;4841;210000;1154.33;0.00;4709;118
473;2101350;Bacurituba;Maranhão;MA;-2.71000000;-44.73290000;0;98;America/Sao_Paulo;5252;1809;210000;810.89;0.00;1673;31
474;2101400;Balsas;Maranhão;MA;-7.53214000;-46.03720000;0;99;America/Sao_Paulo;101767;43672;225000;2247.49;0.00;21982;6547
475;2101509;Barão de Grajaú;Maranhão;MA;-6.74463000;-43.02610000;0;99;America/Sao_Paulo;18984;6352;210000;1473.94;0.00;5148;619
476;2101608;Barra do Corda;Maranhão;MA;-5.49682000;-45.24850000;0;99;America/Sao_Paulo;84532;27286;210000;1594.48;0.00;22508;2805
477;2101707;Barreirinhas;Maranhão;MA;-2.75863000;-42.82320000;0;98;America/Sao_Paulo;65589;18876;210000;1297.83;0.00;16214;913
478;2101731;Belágua;Maranhão;MA;-3.15485000;-43.51220000;0;98;America/Sao_Paulo;8460;1255;210000;1191.81;0.00;1908;44
479;2101772;Bela Vista do Maranhão;Maranhão;MA;-3.72618000;-45.30750000;0;98;America/Sao_Paulo;11750;3467;210000;1311.39;0.00;3010;343
480;2101806;Benedito Leite;Maranhão;MA;-7.21037000;-44.55770000;0;99;America/Sao_Paulo;5469;1457;210000;1387.4;0.00;1522;104
481;2101905;Bequimão;Maranhão;MA;-2.44162000;-44.78420000;0;98;America/Sao_Paulo;19584;6253;210000;1011.41;0.00;6289;160
482;2101939;Bernardo do Mearim;Maranhão;MA;-4.62666000;-44.76080000;0;99;America/Sao_Paulo;5840;1410;210000;1386.3;0.00;1544;117
483;2101970;Boa Vista do Gurupi;Maranhão;MA;-1.77614000;-46.30020000;0;98;America/Sao_Paulo;7574;1587;210000;1447.01;0.00;1860;133
484;2102002;Bom Jardim;Maranhão;MA;-3.54129000;-45.60600000;0;98;America/Sao_Paulo;33100;7304;210000;1267.19;0.00;8296;691
485;2102036;Bom Jesus das Selvas;Maranhão;MA;-4.47638000;-46.86410000;0;98;America/Sao_Paulo;28599;8603;210000;1569,00;0.00;6701;804
486;2102077;Bom Lugar;Maranhão;MA;-4.37311000;-45.03260000;0;99;America/Sao_Paulo;12212;3521;210000;1201.09;0.00;3260;160
487;2102101;Brejo;Maranhão;MA;-3.67796000;-42.75270000;0;98;America/Sao_Paulo;34120;9221;210000;1186.75;0.00;8983;271
488;2102150;Brejo de Areia;Maranhão;MA;-4.33400000;-45.58100000;0;98;America/Sao_Paulo;9218;2157;210000;1142.88;0.00;2330;118
489;2102200;Buriti;Maranhão;MA;-3.94169000;-42.91790000;0;98;America/Sao_Paulo;29685;4767;210000;1237.55;0.00;7561;292
490;2102309;Buriti Bravo;Maranhão;MA;-5.83239000;-43.83530000;0;99;America/Sao_Paulo;22455;6180;210000;1111.59;0.00;5599;529
491;2102325;Buriticupu;Maranhão;MA;-4.32375000;-46.44090000;0;98;America/Sao_Paulo;55499;15260;210000;1597.77;0.00;13448;1789
492;2102358;Buritirana;Maranhão;MA;-5.59823000;-47.01310000;0;99;America/Sao_Paulo;12918;3919;210000;1243.79;0.00;3356;342
493;2102374;Cachoeira Grande;Maranhão;MA;-2.93074000;-44.05280000;0;98;America/Sao_Paulo;9732;2102;210000;758.51;0.00;2543;63
494;2102408;Cajapió;Maranhão;MA;-2.87326000;-44.67410000;0;98;America/Sao_Paulo;10121;1760;210000;1070.84;0.00;2978;40
495;2102507;Cajari;Maranhão;MA;-3.32742000;-45.01450000;0;98;America/Sao_Paulo;16412;3801;210000;969.05;0.00;4512;150
496;2102556;Campestre do Maranhão;Maranhão;MA;-6.17075000;-47.36250000;0;99;America/Sao_Paulo;12301;3970;210000;1751.24;0.00;3085;517
497;2102606;Cândido Mendes;Maranhão;MA;-1.43265000;-45.71610000;0;98;America/Sao_Paulo;19932;6333;210000;1061.76;0.00;5155;298
498;2102705;Cantanhede;Maranhão;MA;-3.63757000;-44.38300000;0;98;America/Sao_Paulo;24303;6284;210000;1882.22;0.00;5303;293
499;2102754;Capinzal do Norte;Maranhão;MA;-4.72360000;-44.32800000;0;99;America/Sao_Paulo;11374;3209;210000;1590.94;0.00;3058;321
500;2102804;Carolina;Maranhão;MA;-7.33584000;-47.46340000;0;99;America/Sao_Paulo;24062;9490;210000;1528.49;0.00;5962;1117
501;2102903;Carutapera;Maranhão;MA;-1.19696000;-46.00850000;0;98;America/Sao_Paulo;24238;8149;210000;1247.64;0.00;6344;417
502;2103000;Caxias;Maranhão;MA;-4.86505000;-43.36170000;0;99;America/Sao_Paulo;156973;53501;225000;1698.45;0.00;40303;4854
503;2103109;Cedral;Maranhão;MA;-2.00027000;-44.52810000;0;98;America/Sao_Paulo;10208;3348;210000;877.68;0.00;2990;81
504;2103125;Central do Maranhão;Maranhão;MA;-2.19831000;-44.82540000;0;98;America/Sao_Paulo;7094;1544;210000;1320.58;0.00;2073;34
505;2103158;Centro do Guilherme;Maranhão;MA;-2.44891000;-46.03450000;0;98;America/Sao_Paulo;12342;4154;210000;1333.9;0.00;2687;262
506;2103174;Centro Novo do Maranhão;Maranhão;MA;-2.12696000;-46.12280000;0;98;America/Sao_Paulo;16267;5866;210000;1345.68;0.00;3683;222
507;2103208;Chapadinha;Maranhão;MA;-3.73875000;-43.35380000;0;98;America/Sao_Paulo;81386;23045;210000;1565.64;0.00;19293;2446
508;2103257;Cidelândia;Maranhão;MA;-5.17465000;-47.77810000;0;99;America/Sao_Paulo;12878;4587;210000;1560.22;0.00;3236;466
509;2103307;Codó;Maranhão;MA;-4.45562000;-43.89240000;0;99;America/Sao_Paulo;114275;34484;225000;1448.53;0.00;28927;2952
510;2103406;Coelho Neto;Maranhão;MA;-4.25245000;-43.01080000;0;98;America/Sao_Paulo;41658;11107;210000;1429.5;0.00;9914;1160
511;2103505;Colinas;Maranhão;MA;-6.03199000;-44.25430000;0;99;America/Sao_Paulo;40316;11741;210000;1418.88;0.00;10226;1255
512;2103554;Conceição do Lago-Açu;Maranhão;MA;-3.85142000;-44.88950000;0;98;America/Sao_Paulo;14915;4324;210000;1034.83;0.00;3692;255
513;2103604;Coroatá;Maranhão;MA;-4.13442000;-44.12440000;0;99;America/Sao_Paulo;59566;15366;210000;1226.74;0.00;15751;1519
514;2103703;Cururupu;Maranhão;MA;-1.81475000;-44.86440000;0;98;America/Sao_Paulo;31558;10451;210000;1103.78;0.00;8947;346
515;2103752;Davinópolis;Maranhão;MA;-5.54637000;-47.42170000;0;99;America/Sao_Paulo;14404;6043;220000;1438.48;0.00;3696;608
516;2103802;Dom Pedro;Maranhão;MA;-5.03518000;-44.44090000;0;99;America/Sao_Paulo;23053;9186;210000;1443.72;0.00;5671;1099
517;2103901;Duque Bacelar;Maranhão;MA;-4.15002000;-42.94770000;0;98;America/Sao_Paulo;10223;2137;210000;1206.29;0.00;2435;111
518;2104008;Esperantinópolis;Maranhão;MA;-4.87938000;-44.69260000;0;99;America/Sao_Paulo;18311;4707;210000;1418.78;0.00;4967;424
519;2104057;Estreito;Maranhão;MA;-6.56077000;-47.44310000;0;99;America/Sao_Paulo;33294;13673;210000;1988.43;0.00;8312;1493
520;2104073;Feira Nova do Maranhão;Maranhão;MA;-6.96508000;-46.67860000;0;99;America/Sao_Paulo;8048;2500;210000;1286.5;0.00;1974;214
521;2104081;Fernando Falcão;Maranhão;MA;-6.16207000;-44.89790000;0;99;America/Sao_Paulo;10873;3358;210000;1155.1;0.00;2464;58
522;2104099;Formosa da Serra Negra;Maranhão;MA;-6.44017000;-46.19160000;0;99;America/Sao_Paulo;17719;4588;210000;1468.16;0.00;4485;268
523;2104107;Fortaleza dos Nogueiras;Maranhão;MA;-6.95983000;-46.17490000;0;99;America/Sao_Paulo;12640;4430;210000;1843.84;0.00;3318;395
524;2104206;Fortuna;Maranhão;MA;-5.72792000;-44.15650000;0;99;America/Sao_Paulo;16976;3762;210000;1533.43;0.00;4510;375
525;2104305;Godofredo Viana;Maranhão;MA;-1.40259000;-45.77950000;0;98;America/Sao_Paulo;10186;3421;210000;1736.55;0.00;2697;289
526;2104404;Gonçalves Dias;Maranhão;MA;-5.14750000;-44.30130000;0;99;America/Sao_Paulo;17206;5232;210000;1370.13;0.00;4711;347
527;2104503;Governador Archer;Maranhão;MA;-5.02078000;-44.27540000;0;99;America/Sao_Paulo;10231;2710;210000;1473.69;0.00;2534;275
528;2104552;Governador Edison Lobão;Maranhão;MA;-5.74973000;-47.36460000;0;99;America/Sao_Paulo;18411;6005;210000;1644.46;0.00;4273;1177
529;2104602;Governador Eugênio Barros;Maranhão;MA;-5.31897000;-44.24690000;0;99;America/Sao_Paulo;13930;3663;210000;1585.98;0.00;3819;221
530;2104628;Governador Luiz Rocha;Maranhão;MA;-5.47835000;-44.07740000;0;99;America/Sao_Paulo;7063;2011;210000;1382.41;0.00;1932;149
531;2104651;Governador Newton Bello;Maranhão;MA;-3.43245000;-45.66190000;0;98;America/Sao_Paulo;10713;3146;210000;1265.83;0.00;2453;185
532;2104677;Governador Nunes Freire;Maranhão;MA;-2.12899000;-45.87770000;0;98;America/Sao_Paulo;23128;6941;210000;1416.29;0.00;5550;786
533;2104701;Graça Aranha;Maranhão;MA;-5.40547000;-44.33580000;0;99;America/Sao_Paulo;6023;1468;210000;1127.94;0.00;1757;112
534;2104800;Grajaú;Maranhão;MA;-5.81367000;-46.14620000;0;99;America/Sao_Paulo;73872;24546;210000;1767.3;0.00;17916;2200
535;2104909;Guimarães;Maranhão;MA;-2.12755000;-44.60200000;0;98;America/Sao_Paulo;10290;3082;210000;1040.26;0.00;3301;92
536;2105005;Humberto de Campos;Maranhão;MA;-2.59828000;-43.46490000;0;98;America/Sao_Paulo;25680;4809;210000;1062.68;0.00;6565;149
537;2105104;Icatu;Maranhão;MA;-2.77206000;-44.05010000;0;98;America/Sao_Paulo;24794;4317;210000;1032.77;0.00;6661;123
538;2105153;Igarapé do Meio;Maranhão;MA;-3.65771000;-45.21140000;0;98;America/Sao_Paulo;13974;3785;210000;1456.53;0.00;3626;160
539;2105203;Igarapé Grande;Maranhão;MA;-4.66250000;-44.85580000;0;99;America/Sao_Paulo;10231;3818;210000;1215.65;0.00;2637;370
540;2105302;Imperatriz;Maranhão;MA;-5.51847000;-47.47770000;0;99;America/Sao_Paulo;273110;119248;235000;2498.19;0.00;62007;23838
541;2105351;Itaipava do Grajaú;Maranhão;MA;-5.14252000;-45.78770000;0;99;America/Sao_Paulo;13828;3165;210000;1230.31;0.00;3378;246
542;2105401;Itapecuru Mirim;Maranhão;MA;-3.40202000;-44.35080000;0;98;America/Sao_Paulo;60440;15863;210000;1403.7;0.00;16886;862
543;2105427;Itinga do Maranhão;Maranhão;MA;-4.45293000;-47.52350000;0;99;America/Sao_Paulo;22513;8896;210000;1647.24;0.00;5316;1251
544;2105450;Jatobá;Maranhão;MA;-5.82282000;-44.21530000;0;99;America/Sao_Paulo;7471;1458;210000;1358.16;0.00;2056;86
545;2105476;Jenipapo dos Vieiras;Maranhão;MA;-5.36237000;-45.63560000;0;99;America/Sao_Paulo;17076;2614;210000;1581.79;0.00;4354;103
546;2105500;João Lisboa;Maranhão;MA;-5.44363000;-47.40640000;0;99;America/Sao_Paulo;24709;9373;210000;1558.81;0.00;5879;1146
547;2105609;Joselândia;Maranhão;MA;-4.98611000;-44.69580000;0;99;America/Sao_Paulo;14924;3309;210000;1571.3;0.00;3993;216
548;2105658;Junco do Maranhão;Maranhão;MA;-1.83888000;-46.09000000;0;98;America/Sao_Paulo;5146;1220;210000;1246.66;0.00;1352;86
549;2105708;Lago da Pedra;Maranhão;MA;-4.56974000;-45.13190000;0;99;America/Sao_Paulo;44403;16977;210000;1407.28;0.00;11039;1546
550;2105807;Lago do Junco;Maranhão;MA;-4.60900000;-45.04900000;0;99;America/Sao_Paulo;9506;3559;210000;1196.57;0.00;2634;96
551;2105906;Lago Verde;Maranhão;MA;-3.94661000;-44.82600000;0;99;America/Sao_Paulo;14769;3753;210000;1346.75;0.00;3946;165
552;2105922;Lagoa do Mato;Maranhão;MA;-6.05023000;-43.53330000;0;99;America/Sao_Paulo;10572;1911;210000;1438.13;0.00;2853;132
553;2105948;Lago dos Rodrigues;Maranhão;MA;-4.61173000;-44.97980000;0;99;America/Sao_Paulo;8758;2823;210000;1391.81;0.00;2400;230
554;2105963;Lagoa Grande do Maranhão;Maranhão;MA;-4.98893000;-45.38160000;0;99;America/Sao_Paulo;11411;3324;210000;1160.99;0.00;2974;220
555;2105989;Lajeado Novo;Maranhão;MA;-6.18539000;-47.02930000;0;99;America/Sao_Paulo;7057;2004;210000;1635.99;0.00;1960;216
556;2106003;Lima Campos;Maranhão;MA;-4.51837000;-44.46460000;0;99;America/Sao_Paulo;11297;3988;210000;1475.52;0.00;3092;351
557;2106102;Loreto;Maranhão;MA;-7.08111000;-45.14510000;0;99;America/Sao_Paulo;11597;3499;210000;1543.51;0.00;2812;187
558;2106201;Luís Domingues;Maranhão;MA;-1.27492000;-45.86700000;0;98;America/Sao_Paulo;7161;1738;210000;1319.16;0.00;1890;140
559;2106300;Magalhães de Almeida;Maranhão;MA;-3.39232000;-42.21170000;0;98;America/Sao_Paulo;13807;3652;210000;1371.97;0.00;3785;208
560;2106326;Maracaçumé;Maranhão;MA;-2.04918000;-45.95870000;0;98;America/Sao_Paulo;21149;4413;210000;1402.76;0.00;5160;520
561;2106359;Marajá do Sena;Maranhão;MA;-4.62806000;-45.45310000;0;98;America/Sao_Paulo;7027;1479;210000;1031.57;0.00;1706;27
562;2106375;Maranhãozinho;Maranhão;MA;-2.24078000;-45.85070000;0;98;America/Sao_Paulo;13761;2475;210000;1421.63;0.00;2836;318
563;2106409;Mata Roma;Maranhão;MA;-3.62035000;-43.11120000;0;98;America/Sao_Paulo;17090;4307;210000;1220.52;0.00;4347;194
564;2106508;Matinha;Maranhão;MA;-3.09849000;-45.03500000;0;98;America/Sao_Paulo;22034;6469;210000;1065.44;0.00;6197;237
565;2106607;Matões;Maranhão;MA;-5.51359000;-43.20180000;0;99;America/Sao_Paulo;32174;7203;210000;1398.97;0.00;8371;403
566;2106631;Matões do Norte;Maranhão;MA;-3.62440000;-44.54680000;0;98;America/Sao_Paulo;17432;3218;210000;1363.38;0.00;3468;211
567;2106672;Milagres do Maranhão;Maranhão;MA;-3.57443000;-42.61310000;0;98;America/Sao_Paulo;8818;910;210000;1376.12;0.00;2262;28
568;2106706;Mirador;Maranhão;MA;-6.37454000;-44.36830000;0;99;America/Sao_Paulo;21030;4776;210000;1235.97;0.00;5385;341
569;2106755;Miranda do Norte;Maranhão;MA;-3.56313000;-44.58140000;0;98;America/Sao_Paulo;23864;6776;210000;1377.85;0.00;5859;632
570;2106805;Mirinzal;Maranhão;MA;-2.07094000;-44.77870000;0;98;America/Sao_Paulo;13978;4934;210000;1222.89;0.00;4044;293
571;2106904;Monção;Maranhão;MA;-3.48125000;-45.24960000;0;98;America/Sao_Paulo;27751;7447;210000;1010.47;0.00;6975;250
572;2107001;Montes Altos;Maranhão;MA;-5.83067000;-47.06730000;0;99;America/Sao_Paulo;9106;2615;210000;1609.78;0.00;2414;181
573;2107100;Morros;Maranhão;MA;-2.85379000;-44.03570000;0;98;America/Sao_Paulo;18554;3274;210000;1413.74;0.00;4781;205
574;2107209;Nina Rodrigues;Maranhão;MA;-3.46788000;-43.91340000;0;98;America/Sao_Paulo;14176;3248;210000;1358.04;0.00;3027;46
575;2107258;Nova Colinas;Maranhão;MA;-7.12263000;-46.26070000;0;99;America/Sao_Paulo;5021;1340;210000;1742,00;0.00;1251;77
576;2107308;Nova Iorque;Maranhão;MA;-6.73047000;-44.04710000;0;99;America/Sao_Paulo;4320;1190;210000;1201.29;0.00;1165;86
577;2107357;Nova Olinda do Maranhão;Maranhão;MA;-2.84227000;-45.69530000;0;98;America/Sao_Paulo;14314;3997;210000;1183.06;0.00;3593;364
578;2107407;Olho d'Água das Cunhãs;Maranhão;MA;-4.13417000;-45.11630000;0;98;America/Sao_Paulo;17919;5634;210000;1427.59;0.00;4799;518
579;2107456;Olinda Nova do Maranhão;Maranhão;MA;-2.99295000;-44.98970000;0;98;America/Sao_Paulo;13577;3004;210000;1154.83;0.00;3916;127
580;2107506;Paço do Lumiar;Maranhão;MA;-2.51657000;-44.10190000;0;98;America/Sao_Paulo;145643;59874;235000;1984.66;0.00;39541;6203
581;2107605;Palmeirândia;Maranhão;MA;-2.64433000;-44.89330000;0;98;America/Sao_Paulo;21059;3623;210000;1185.89;0.00;5697;166
582;2107704;Paraibano;Maranhão;MA;-6.42640000;-43.97920000;0;99;America/Sao_Paulo;18274;4881;210000;1479.17;0.00;4990;548
583;2107803;Parnarama;Maranhão;MA;-5.67365000;-43.10110000;0;99;America/Sao_Paulo;31250;7677;210000;1259.82;0.00;8144;539
584;2107902;Passagem Franca;Maranhão;MA;-6.17745000;-43.77550000;0;99;America/Sao_Paulo;17220;4626;210000;1186.1;0.00;4370;449
585;2108009;Pastos Bons;Maranhão;MA;-6.60296000;-44.07450000;0;99;America/Sao_Paulo;18802;5866;210000;1496.03;0.00;4864;496
586;2108058;Paulino Neves;Maranhão;MA;-2.72094000;-42.52580000;0;98;America/Sao_Paulo;17056;3934;210000;1344,00;0.00;4123;154
587;2108108;Paulo Ramos;Maranhão;MA;-4.44485000;-45.23980000;0;98;America/Sao_Paulo;20341;5812;210000;1309.52;0.00;5026;466
588;2108207;Pedreiras;Maranhão;MA;-4.56482000;-44.60060000;0;99;America/Sao_Paulo;37050;15120;210000;1863.35;0.00;9267;2078
589;2108256;Pedro do Rosário;Maranhão;MA;-2.97272000;-45.34930000;0;98;America/Sao_Paulo;24320;6009;210000;1012.88;0.00;6330;349
590;2108306;Penalva;Maranhão;MA;-3.27674000;-45.17680000;0;98;America/Sao_Paulo;32511;8889;210000;1058.69;0.00;8852;353
591;2108405;Peri Mirim;Maranhão;MA;-2.57676000;-44.85040000;0;98;America/Sao_Paulo;11108;3012;210000;1091.35;0.00;3578;66
592;2108454;Peritoró;Maranhão;MA;-4.37459000;-44.33690000;0;99;America/Sao_Paulo;20479;6859;210000;1280.12;0.00;5541;314
593;2108504;Pindaré-Mirim;Maranhão;MA;-3.60985000;-45.34200000;0;98;America/Sao_Paulo;31429;10536;210000;1512.44;0.00;8214;779
594;2108603;Pinheiro;Maranhão;MA;-2.52224000;-45.07880000;0;98;America/Sao_Paulo;84621;29792;210000;1528.19;0.00;22436;2478
595;2108702;Pio XII;Maranhão;MA;-3.89315000;-45.17590000;0;98;America/Sao_Paulo;21886;7800;210000;1312.75;0.00;5699;493
596;2108801;Pirapemas;Maranhão;MA;-3.72041000;-44.22160000;0;98;America/Sao_Paulo;17714;3906;210000;1597.55;0.00;4268;327
597;2108900;Poção de Pedras;Maranhão;MA;-4.74626000;-44.94320000;0;99;America/Sao_Paulo;17161;4916;210000;1436,00;0.00;4932;435
598;2109007;Porto Franco;Maranhão;MA;-6.34149000;-47.39620000;0;99;America/Sao_Paulo;23903;8875;210000;2178.29;0.00;5709;1299
599;2109056;Porto Rico do Maranhão;Maranhão;MA;-1.85925000;-44.58420000;0;98;America/Sao_Paulo;5954;1796;210000;968.39;0.00;1682;85
600;2109106;Presidente Dutra;Maranhão;MA;-5.28980000;-44.49500000;0;99;America/Sao_Paulo;45155;16788;210000;2046.07;0.00;10678;2653
601;2109205;Presidente Juscelino;Maranhão;MA;-2.91872000;-44.07150000;0;98;America/Sao_Paulo;11356;2813;210000;1146.59;0.00;2903;75
602;2109239;Presidente Médici;Maranhão;MA;-2.38991000;-45.82000000;0;98;America/Sao_Paulo;4696;1227;210000;1461.97;0.00;1237;100
603;2109270;Presidente Sarney;Maranhão;MA;-2.58799000;-45.35950000;0;98;America/Sao_Paulo;17511;3714;210000;1194.92;0.00;4427;166
604;2109304;Presidente Vargas;Maranhão;MA;-3.40787000;-44.02340000;0;98;America/Sao_Paulo;10549;2691;210000;1149.38;0.00;2830;64
605;2109403;Primeira Cruz;Maranhão;MA;-2.50568000;-43.42320000;0;98;America/Sao_Paulo;13614;1730;210000;1173.56;0.00;3444;55
606;2109452;Raposa;Maranhão;MA;-2.42540000;-44.09730000;0;98;America/Sao_Paulo;30839;12005;220000;1591.65;0.00;8266;862
607;2109502;Riachão;Maranhão;MA;-7.35819000;-46.62250000;0;99;America/Sao_Paulo;22145;5896;210000;1616.88;0.00;5579;718
608;2109551;Ribamar Fiquene;Maranhão;MA;-5.93067000;-47.38880000;0;99;America/Sao_Paulo;7420;2254;210000;1508.54;0.00;1987;193
609;2109601;Rosário;Maranhão;MA;-2.93444000;-44.25310000;0;98;America/Sao_Paulo;38475;12412;210000;1315.46;0.00;10996;647
610;2109700;Sambaíba;Maranhão;MA;-7.13447000;-45.35150000;0;99;America/Sao_Paulo;5568;1086;210000;1713.32;0.00;1432;86
611;2109759;Santa Filomena do Maranhão;Maranhão;MA;-5.49671000;-44.56380000;0;99;America/Sao_Paulo;6697;1494;210000;1436.67;0.00;1785;68
612;2109809;Santa Helena;Maranhão;MA;-2.24426000;-45.29000000;0;98;America/Sao_Paulo;41561;10175;210000;1271.18;0.00;9744;1003
613;2109908;Santa Inês;Maranhão;MA;-3.65112000;-45.37740000;0;98;America/Sao_Paulo;85014;33595;210000;1814.82;0.00;20281;5031
614;2110005;Santa Luzia;Maranhão;MA;-4.06873000;-45.69000000;0;98;America/Sao_Paulo;57635;17353;210000;1492.3;0.00;14640;1380
615;2110039;Santa Luzia do Paruá;Maranhão;MA;-2.51123000;-45.78010000;0;98;America/Sao_Paulo;24307;7824;210000;1546.35;0.00;5904;637
616;2110104;Santa Quitéria do Maranhão;Maranhão;MA;-3.49308000;-42.56880000;0;98;America/Sao_Paulo;23957;4999;210000;1253.08;0.00;5896;303
617;2110203;Santa Rita;Maranhão;MA;-3.14241000;-44.32110000;0;98;America/Sao_Paulo;37035;10219;210000;1536.89;0.00;10315;589
618;2110237;Santana do Maranhão;Maranhão;MA;-3.10900000;-42.40640000;0;98;America/Sao_Paulo;10567;1667;210000;1647.14;0.00;2825;29
619;2110278;Santo Amaro do Maranhão;Maranhão;MA;-2.50068000;-43.23800000;0;98;America/Sao_Paulo;13949;3681;210000;1131.49;0.00;3337;122
620;2110302;Santo Antônio dos Lopes;Maranhão;MA;-4.86613000;-44.36530000;0;99;America/Sao_Paulo;14304;4501;210000;1390.68;0.00;3845;330
621;2110401;São Benedito do Rio Preto;Maranhão;MA;-3.33515000;-43.52870000;0;98;America/Sao_Paulo;18364;2735;210000;1247.31;0.00;4673;119
622;2110500;São Bento;Maranhão;MA;-2.69781000;-44.82890000;0;98;America/Sao_Paulo;46395;8843;210000;1259.94;0.00;10459;1031
623;2110609;São Bernardo;Maranhão;MA;-3.37223000;-42.41910000;0;98;America/Sao_Paulo;26943;6879;210000;1414.74;0.00;6857;343
624;2110658;São Domingos do Azeitão;Maranhão;MA;-6.81471000;-44.65090000;0;99;America/Sao_Paulo;7992;2476;210000;1622.41;0.00;1946;189
625;2110708;São Domingos do Maranhão;Maranhão;MA;-5.58095000;-44.38220000;0;99;America/Sao_Paulo;34034;9891;210000;1607.86;0.00;8874;1191
626;2110807;São Félix de Balsas;Maranhão;MA;-7.07535000;-44.80920000;0;99;America/Sao_Paulo;4402;815;210000;1326.07;0.00;1305;26
627;2110856;São Francisco do Brejão;Maranhão;MA;-5.12584000;-47.38900000;0;99;America/Sao_Paulo;9051;2995;210000;1586.94;0.00;2094;343
628;2110906;São Francisco do Maranhão;Maranhão;MA;-6.25159000;-42.86680000;0;99;America/Sao_Paulo;12064;2605;210000;1197.76;0.00;3522;74
629;2111003;São João Batista;Maranhão;MA;-2.95398000;-44.79530000;0;98;America/Sao_Paulo;18544;3775;210000;1179.27;0.00;5533;187
630;2111029;São João do Carú;Maranhão;MA;-3.55030000;-46.25070000;0;98;America/Sao_Paulo;12251;2927;210000;1241.15;0.00;2953;175
631;2111052;São João do Paraíso;Maranhão;MA;-6.45634000;-47.05940000;0;99;America/Sao_Paulo;9904;2349;210000;1492.87;0.00;2715;227
632;2111078;São João do Soter;Maranhão;MA;-5.10821000;-43.81630000;0;99;America/Sao_Paulo;16889;3708;210000;1172.82;0.00;4625;206
633;2111102;São João dos Patos;Maranhão;MA;-6.49340000;-43.70360000;0;99;America/Sao_Paulo;25020;8000;210000;1530.68;0.00;6565;1156
634;2111201;São José de Ribamar;Maranhão;MA;-2.54704000;-44.05970000;0;98;America/Sao_Paulo;244579;104648;235000;2107.51;0.00;63587;13186
635;2111250;São José dos Basílios;Maranhão;MA;-5.05493000;-44.58090000;0;99;America/Sao_Paulo;6957;1217;210000;1330.18;0.00;1875;78
636;2111300;São Luís;Maranhão;MA;-2.53874000;-44.28250000;1;98;America/Sao_Paulo;1037775;466829;260000;2794.14;0.00;255434;76610
637;2111409;São Luís Gonzaga do Maranhão;Maranhão;MA;-4.38541000;-44.66540000;0;99;America/Sao_Paulo;17818;4032;210000;1413.08;0.00;4956;250
638;2111508;São Mateus do Maranhão;Maranhão;MA;-4.03736000;-44.47070000;0;99;America/Sao_Paulo;38829;11681;210000;1497.8;0.00;10527;944
639;2111532;São Pedro da Água Branca;Maranhão;MA;-5.08472000;-48.42910000;0;99;America/Sao_Paulo;14338;4020;210000;1793.89;0.00;3303;376
640;2111573;São Pedro dos Crentes;Maranhão;MA;-6.82389000;-46.53190000;0;99;America/Sao_Paulo;5783;1571;210000;1588.02;0.00;1279;177
641;2111607;São Raimundo das Mangabeiras;Maranhão;MA;-7.02183000;-45.48090000;0;99;America/Sao_Paulo;18672;5874;210000;1694.84;0.00;4326;965
642;2111631;São Raimundo do Doca Bezerra;Maranhão;MA;-5.11053000;-45.06960000;0;99;America/Sao_Paulo;5650;1079;210000;1564.88;0.00;1542;73
643;2111672;São Roberto;Maranhão;MA;-5.02310000;-45.00100000;0;99;America/Sao_Paulo;4544;760;210000;1554.89;0.00;1212;70
644;2111706;São Vicente Ferrer;Maranhão;MA;-2.89487000;-44.86810000;0;98;America/Sao_Paulo;19498;4489;210000;1061.13;0.00;5862;244
645;2111722;Satubinha;Maranhão;MA;-4.04913000;-45.24570000;0;98;America/Sao_Paulo;8784;2624;210000;1280.23;0.00;2265;82
646;2111748;Senador Alexandre Costa;Maranhão;MA;-5.25096000;-44.05330000;0;99;America/Sao_Paulo;10207;2724;210000;1353.87;0.00;2661;145
647;2111763;Senador La Rocque;Maranhão;MA;-5.44610000;-47.29590000;0;99;America/Sao_Paulo;14700;4927;210000;1525.9;0.00;3879;400
648;2111789;Serrano do Maranhão;Maranhão;MA;-1.85229000;-45.12070000;0;98;America/Sao_Paulo;10202;3068;210000;994.3;0.00;2897;57
649;2111805;Sítio Novo;Maranhão;MA;-5.87601000;-46.70330000;0;99;America/Sao_Paulo;17074;4795;210000;1416.38;0.00;4320;404
650;2111904;Sucupira do Norte;Maranhão;MA;-6.47839000;-44.19190000;0;99;America/Sao_Paulo;10238;2794;210000;1293.84;0.00;2718;187
651;2111953;Sucupira do Riachão;Maranhão;MA;-6.40858000;-43.54550000;0;99;America/Sao_Paulo;4985;1282;210000;1175.54;0.00;1409;51
652;2112001;Tasso Fragoso;Maranhão;MA;-8.46620000;-45.75360000;0;99;America/Sao_Paulo;8862;2739;210000;1981.48;0.00;2220;290
653;2112100;Timbiras;Maranhão;MA;-4.25597000;-43.93200000;0;99;America/Sao_Paulo;26484;5377;210000;1332.61;0.00;6683;282
654;2112209;Timon;Maranhão;MA;-5.09769000;-42.83290000;0;99;America/Sao_Paulo;174465;68482;235000;1740.17;0.00;43629;6232
655;2112233;Trizidela do Vale;Maranhão;MA;-4.53800000;-44.62800000;0;99;America/Sao_Paulo;22484;8545;210000;1388.38;0.00;5626;1122
656;2112274;Tufilândia;Maranhão;MA;-3.67355000;-45.62380000;0;98;America/Sao_Paulo;5507;1715;210000;1115.42;0.00;1350;74
657;2112308;Tuntum;Maranhão;MA;-5.25476000;-44.64440000;0;99;America/Sao_Paulo;36251;10377;210000;1313.37;0.00;9721;880
658;2112407;Turiaçu;Maranhão;MA;-1.65893000;-45.37980000;0;98;America/Sao_Paulo;37491;10045;210000;1062.36;0.00;9057;602
659;2112456;Turilândia;Maranhão;MA;-2.21638000;-45.30440000;0;98;America/Sao_Paulo;31638;5857;210000;1167.08;0.00;6469;443
660;2112506;Tutóia;Maranhão;MA;-2.76141000;-42.27550000;0;98;America/Sao_Paulo;53356;13181;210000;1359.99;0.00;13027;994
661;2112605;Urbano Santos;Maranhão;MA;-3.20642000;-43.38780000;0;98;America/Sao_Paulo;32812;8184;210000;1217.45;0.00;7770;298
662;2112704;Vargem Grande;Maranhão;MA;-3.53639000;-43.91700000;0;98;America/Sao_Paulo;43261;10884;210000;1290.65;0.00;11237;660
663;2112803;Viana;Maranhão;MA;-3.20451000;-44.99120000;0;98;America/Sao_Paulo;51442;15701;210000;1353.76;0.00;13982;901
664;2112852;Vila Nova dos Martírios;Maranhão;MA;-5.18889000;-48.13360000;0;99;America/Sao_Paulo;10362;3342;210000;1510.45;0.00;2539;312
665;2112902;Vitória do Mearim;Maranhão;MA;-3.45125000;-44.86430000;0;98;America/Sao_Paulo;30805;8627;210000;1314.64;0.00;8237;519
666;2113009;Vitorino Freire;Maranhão;MA;-4.28184000;-45.25050000;0;98;America/Sao_Paulo;30845;10568;210000;1326.01;0.00;7984;973
667;2114007;Zé Doca;Maranhão;MA;-3.27014000;-45.65530000;0;98;America/Sao_Paulo;40801;13623;210000;1430.84;0.00;10415;1250
668;2200053;Acauã;Piauí;PI;-8.21954000;-41.08310000;0;89;America/Sao_Paulo;6420;1616;210000;896.85;0.00;2036;115
669;2200103;Agricolândia;Piauí;PI;-5.79676000;-42.66640000;0;86;America/Sao_Paulo;4940;1339;210000;1079.24;0.00;1508;66
670;2200202;Água Branca;Piauí;PI;-5.88856000;-42.63700000;0;86;America/Sao_Paulo;17573;6186;210000;1376.7;0.00;4791;667
671;2200251;Alagoinha do Piauí;Piauí;PI;-7.00039000;-40.92820000;0;89;America/Sao_Paulo;6819;1524;210000;941.18;0.00;2316;139
672;2200277;Alegrete do Piauí;Piauí;PI;-7.24196000;-40.85660000;0;89;America/Sao_Paulo;4634;687;210000;1751.41;0.00;1385;132
673;2200301;Alto Longá;Piauí;PI;-5.25634000;-42.20960000;0;86;America/Sao_Paulo;13479;4475;210000;1031.04;0.00;4022;313
674;2200400;Altos;Piauí;PI;-5.03888000;-42.46120000;0;86;America/Sao_Paulo;47453;16271;210000;1505.36;0.00;13312;889
675;2200459;Alvorada do Gurguéia;Piauí;PI;-8.42418000;-43.77700000;0;89;America/Sao_Paulo;5322;1045;210000;1416.08;0.00;1495;75
676;2200509;Amarante;Piauí;PI;-6.24304000;-42.84330000;0;86;America/Sao_Paulo;17234;4390;210000;1432.09;0.00;4994;237
677;2200608;Angical do Piauí;Piauí;PI;-6.08786000;-42.74000000;0;86;America/Sao_Paulo;6827;2071;210000;1275.43;0.00;2166;143
678;2200707;Anísio de Abreu;Piauí;PI;-9.18564000;-43.04940000;0;89;America/Sao_Paulo;9407;2585;210000;1350.57;0.00;2828;165
679;2200806;Antônio Almeida;Piauí;PI;-7.21276000;-44.18890000;0;89;America/Sao_Paulo;3152;1115;210000;1549.7;0.00;900;49
680;2200905;Aroazes;Piauí;PI;-6.11022000;-41.78220000;0;89;America/Sao_Paulo;5369;1305;210000;1164.83;0.00;1563;109
681;2200954;Aroeiras do Itaim;Piauí;PI;-7.24502000;-41.53250000;0;89;America/Sao_Paulo;2690;617;210000;1127.89;0.00;842;32
682;2201002;Arraial;Piauí;PI;-6.65075000;-42.54180000;0;89;America/Sao_Paulo;4520;1044;210000;1237.44;0.00;1443;41
683;2201051;Assunção do Piauí;Piauí;PI;-5.86500000;-41.03890000;0;86;America/Sao_Paulo;7452;1482;210000;1041.86;0.00;2155;53
684;2201101;Avelino Lopes;Piauí;PI;-10.13450000;-43.95630000;0;89;America/Sao_Paulo;10866;2356;210000;1373.45;0.00;3077;264
685;2201150;Baixa Grande do Ribeiro;Piauí;PI;-7.84903000;-45.21900000;0;89;America/Sao_Paulo;13272;3936;210000;1961.26;0.00;3351;400
686;2201176;Barra D'Alcântara;Piauí;PI;-6.51645000;-42.11460000;0;89;America/Sao_Paulo;3995;737;210000;1309.1;0.00;1323;73
687;2201200;Barras;Piauí;PI;-4.24468000;-42.29220000;0;86;America/Sao_Paulo;47938;13475;210000;1450.95;0.00;12393;793
688;2201309;Barreiras do Piauí;Piauí;PI;-9.92960000;-45.47020000;0;89;America/Sao_Paulo;3264;742;210000;1423.48;0.00;883;39
689;2201408;Barro Duro;Piauí;PI;-5.81673000;-42.51470000;0;86;America/Sao_Paulo;6640;1706;210000;1385.82;0.00;1911;151
690;2201507;Batalha;Piauí;PI;-4.02230000;-42.07870000;0;86;America/Sao_Paulo;26300;7197;210000;1097.36;0.00;7716;458
691;2201556;Bela Vista do Piauí;Piauí;PI;-7.98809000;-41.86750000;0;89;America/Sao_Paulo;4091;817;210000;1780.83;0.00;1144;53
692;2201572;Belém do Piauí;Piauí;PI;-7.36652000;-40.96880000;0;89;America/Sao_Paulo;3423;1019;210000;1474.12;0.00;1023;62
693;2201606;Beneditinos;Piauí;PI;-5.45676000;-42.36380000;0;86;America/Sao_Paulo;9929;2437;210000;1074.97;0.00;2947;222
694;2201705;Bertolínia;Piauí;PI;-7.63338000;-43.94980000;0;89;America/Sao_Paulo;5562;2143;210000;1508.73;0.00;1482;109
695;2201739;Betânia do Piauí;Piauí;PI;-8.14376000;-40.79890000;0;89;America/Sao_Paulo;6220;1899;210000;828.06;0.00;1788;163
696;2201770;Boa Hora;Piauí;PI;-4.41404000;-42.13570000;0;86;America/Sao_Paulo;6902;1462;210000;1220.51;0.00;1962;66
697;2201804;Bocaina;Piauí;PI;-6.94124000;-41.31680000;0;89;America/Sao_Paulo;4078;911;210000;1650.56;0.00;1363;68
698;2201903;Bom Jesus;Piauí;PI;-9.07124000;-44.35900000;0;89;America/Sao_Paulo;28796;11153;210000;2221.55;0.00;7152;1430
699;2201919;Bom Princípio do Piauí;Piauí;PI;-3.19631000;-41.64030000;0;86;America/Sao_Paulo;5636;1018;210000;1280.79;0.00;1598;68
700;2201929;Bonfim do Piauí;Piauí;PI;-9.16050000;-42.88650000;0;89;America/Sao_Paulo;5913;1183;210000;1334.59;0.00;1867;38
701;2201945;Boqueirão do Piauí;Piauí;PI;-4.48181000;-42.12120000;0;86;America/Sao_Paulo;6545;1361;210000;1482.35;0.00;1950;66
702;2201960;Brasileira;Piauí;PI;-4.13370000;-41.78590000;0;86;America/Sao_Paulo;8436;2582;210000;1466.26;0.00;2531;165
703;2201988;Brejo do Piauí;Piauí;PI;-8.20314000;-42.82290000;0;89;America/Sao_Paulo;3904;848;210000;1082.83;0.00;1210;50
704;2202000;Buriti dos Lopes;Piauí;PI;-3.18259000;-41.86950000;0;86;America/Sao_Paulo;19654;5402;210000;1234.32;0.00;5431;439
705;2202026;Buriti dos Montes;Piauí;PI;-5.30584000;-41.09330000;0;86;America/Sao_Paulo;7434;1929;210000;1176.47;0.00;1918;143
706;2202059;Cabeceiras do Piauí;Piauí;PI;-4.47730000;-42.30690000;0;86;America/Sao_Paulo;10212;1914;210000;1396.37;0.00;2964;82
707;2202075;Cajazeiras do Piauí;Piauí;PI;-6.79667000;-42.39030000;0;89;America/Sao_Paulo;3108;528;210000;1220.83;0.00;932;51
708;2202083;Cajueiro da Praia;Piauí;PI;-2.93111000;-41.34080000;0;86;America/Sao_Paulo;7957;2624;210000;1648.36;0.00;2268;168
709;2202091;Caldeirão Grande do Piauí;Piauí;PI;-7.33140000;-40.63660000;0;89;America/Sao_Paulo;5503;1529;210000;1242.99;0.00;1633;157
710;2202109;Campinas do Piauí;Piauí;PI;-7.65930000;-41.87750000;0;89;America/Sao_Paulo;4938;1107;210000;1173.25;0.00;1552;76
711;2202117;Campo Alegre do Fidalgo;Piauí;PI;-8.38236000;-41.83440000;0;89;America/Sao_Paulo;4616;977;210000;1346.82;0.00;1454;77
712;2202133;Campo Grande do Piauí;Piauí;PI;-7.12827000;-41.03150000;0;89;America/Sao_Paulo;6020;1614;210000;1210.28;0.00;1777;204
713;2202174;Campo Largo do Piauí;Piauí;PI;-3.80441000;-42.64000000;0;86;America/Sao_Paulo;7419;1700;210000;959.41;0.00;2084;61
714;2202208;Campo Maior;Piauí;PI;-4.82170000;-42.16410000;0;86;America/Sao_Paulo;45793;17599;210000;1736.6;0.00;12633;1945
715;2202251;Canavieira;Piauí;PI;-7.68821000;-43.72330000;0;89;America/Sao_Paulo;3414;1109;210000;1162.08;0.00;999;20
716;2202307;Canto do Buriti;Piauí;PI;-8.11110000;-42.95170000;0;89;America/Sao_Paulo;19365;5829;210000;1882.98;0.00;5620;776
717;2202406;Capitão de Campos;Piauí;PI;-4.45700000;-41.94400000;0;86;America/Sao_Paulo;11100;2907;210000;1056.36;0.00;3337;123
718;2202455;Capitão Gervásio Oliveira;Piauí;PI;-8.49655000;-41.81400000;0;89;America/Sao_Paulo;3974;986;210000;1180.06;0.00;1250;110
719;2202505;Caracol;Piauí;PI;-9.27933000;-43.32900000;0;89;America/Sao_Paulo;10318;2223;210000;1469.07;0.00;3078;119
720;2202539;Caraúbas do Piauí;Piauí;PI;-3.47525000;-41.84250000;0;86;America/Sao_Paulo;5630;1470;210000;787.51;0.00;1708;51
721;2202554;Caridade do Piauí;Piauí;PI;-7.73435000;-40.98480000;0;89;America/Sao_Paulo;5033;1563;210000;975.71;0.00;1397;113
722;2202604;Castelo do Piauí;Piauí;PI;-5.31869000;-41.54990000;0;86;America/Sao_Paulo;19288;4976;210000;1268.89;0.00;5243;536
723;2202653;Caxingó;Piauí;PI;-3.41904000;-41.89550000;0;86;America/Sao_Paulo;5496;1414;210000;1014.02;0.00;1591;71
724;2202703;Cocal;Piauí;PI;-3.47279000;-41.55460000;0;86;America/Sao_Paulo;28212;6968;210000;1156.48;0.00;8047;619
725;2202711;Cocal de Telha;Piauí;PI;-4.55710000;-41.95870000;0;86;America/Sao_Paulo;4911;1414;210000;1170.3;0.00;1508;77
726;2202729;Cocal dos Alves;Piauí;PI;-3.62047000;-41.44020000;0;86;America/Sao_Paulo;6386;1198;210000;1217.07;0.00;2058;48
727;2202737;Coivaras;Piauí;PI;-5.09224000;-42.20800000;0;86;America/Sao_Paulo;4117;1064;210000;1103.51;0.00;1078;54
728;2202752;Colônia do Gurguéia;Piauí;PI;-8.18370000;-43.79400000;0;89;America/Sao_Paulo;6150;2012;210000;1360.37;0.00;1790;137
729;2202778;Colônia do Piauí;Piauí;PI;-7.22651000;-42.17560000;0;89;America/Sao_Paulo;6994;1767;210000;1196.34;0.00;2093;112
730;2202802;Conceição do Canindé;Piauí;PI;-7.87638000;-41.59420000;0;89;America/Sao_Paulo;4932;1091;210000;1512.63;0.00;1522;82
731;2202851;Coronel José Dias;Piauí;PI;-8.81397000;-42.52320000;0;89;America/Sao_Paulo;4250;881;210000;1737.31;0.00;1359;51
732;2202901;Corrente;Piauí;PI;-10.43330000;-45.16330000;0;89;America/Sao_Paulo;27278;9198;210000;1889.05;0.00;6834;1003
733;2203008;Cristalândia do Piauí;Piauí;PI;-10.64430000;-45.18930000;0;89;America/Sao_Paulo;7356;1361;210000;1695.66;0.00;2041;90
734;2203107;Cristino Castro;Piauí;PI;-8.82273000;-44.22300000;0;89;America/Sao_Paulo;10503;2983;210000;1806.05;0.00;2697;263
735;2203206;Curimatá;Piauí;PI;-10.03260000;-44.30020000;0;89;America/Sao_Paulo;11270;2414;210000;1503.75;0.00;3041;252
736;2203230;Currais;Piauí;PI;-9.01175000;-44.40620000;0;89;America/Sao_Paulo;4854;921;210000;1401.24;0.00;1303;44
737;2203255;Curralinhos;Piauí;PI;-5.60825000;-42.83760000;0;86;America/Sao_Paulo;4413;1262;210000;1299.99;0.00;1314;37
738;2203271;Curral Novo do Piauí;Piauí;PI;-7.83130000;-40.89570000;0;89;America/Sao_Paulo;5073;1125;210000;1183.31;0.00;1376;95
739;2203305;Demerval Lobão;Piauí;PI;-5.35875000;-42.67760000;0;86;America/Sao_Paulo;16352;5623;210000;1512.17;0.00;4552;551
740;2203354;Dirceu Arcoverde;Piauí;PI;-9.33939000;-42.43480000;0;89;America/Sao_Paulo;7054;2271;210000;1342.83;0.00;2055;120
741;2203404;Dom Expedito Lopes;Piauí;PI;-6.95332000;-41.63960000;0;89;America/Sao_Paulo;6320;2176;210000;1488.09;0.00;1947;199
742;2203420;Domingos Mourão;Piauí;PI;-4.24950000;-41.26830000;0;86;America/Sao_Paulo;4075;799;210000;1205.62;0.00;1146;95
743;2203453;Dom Inocêncio;Piauí;PI;-9.00516000;-41.96970000;0;89;America/Sao_Paulo;9159;2475;210000;1291.62;0.00;2771;228
744;2203503;Elesbão Veloso;Piauí;PI;-6.19947000;-42.13550000;0;86;America/Sao_Paulo;13607;4122;210000;1326.44;0.00;3881;440
745;2203602;Eliseu Martins;Piauí;PI;-8.09629000;-43.67050000;0;89;America/Sao_Paulo;4377;1420;210000;1563.76;0.00;1352;83
746;2203701;Esperantina;Piauí;PI;-3.88863000;-42.23240000;0;86;America/Sao_Paulo;40970;14789;210000;1389.18;0.00;10755;1497
747;2203750;Fartura do Piauí;Piauí;PI;-9.48342000;-42.79120000;0;89;America/Sao_Paulo;5284;754;210000;1289.01;0.00;1648;38
748;2203800;Flores do Piauí;Piauí;PI;-7.78793000;-42.91800000;0;89;America/Sao_Paulo;4414;906;210000;1126.43;0.00;1403;62
749;2203859;Floresta do Piauí;Piauí;PI;-7.46682000;-41.78830000;0;89;America/Sao_Paulo;2333;419;210000;1325.91;0.00;773;61
750;2203909;Floriano;Piauí;PI;-6.77182000;-43.02410000;0;89;America/Sao_Paulo;62036;27113;210000;2064.35;0.00;15060;4124
751;2204006;Francinópolis;Piauí;PI;-6.39334000;-42.25910000;0;89;America/Sao_Paulo;4505;699;210000;1542.3;0.00;1469;73
752;2204105;Francisco Ayres;Piauí;PI;-6.62606000;-42.68810000;0;89;America/Sao_Paulo;4412;802;210000;1393.65;0.00;1405;44
753;2204154;Francisco Macedo;Piauí;PI;-7.33100000;-40.78800000;0;89;America/Sao_Paulo;2929;738;210000;1230.58;0.00;909;63
754;2204204;Francisco Santos;Piauí;PI;-6.99491000;-41.12880000;0;89;America/Sao_Paulo;8237;3180;210000;1289.11;0.00;2482;219
755;2204303;Fronteiras;Piauí;PI;-7.08173000;-40.61460000;0;89;America/Sao_Paulo;10259;2768;210000;1615.65;0.00;2733;542
756;2204352;Geminiano;Piauí;PI;-7.15476000;-41.34090000;0;89;America/Sao_Paulo;5445;1277;210000;1301.76;0.00;1671;151
757;2204402;Gilbués;Piauí;PI;-9.83001000;-45.34230000;0;89;America/Sao_Paulo;10892;3172;210000;1458.14;0.00;2826;278
758;2204501;Guadalupe;Piauí;PI;-6.78285000;-43.55940000;0;89;America/Sao_Paulo;10270;4038;210000;1670.73;0.00;2726;309
759;2204550;Guaribas;Piauí;PI;-9.38647000;-43.69430000;0;89;America/Sao_Paulo;4276;705;210000;1376.08;0.00;1262;18
760;2204600;Hugo Napoleão;Piauí;PI;-5.98860000;-42.55980000;0;86;America/Sao_Paulo;3518;943;210000;1455.49;0.00;1029;68
761;2204659;Ilha Grande;Piauí;PI;-2.85774000;-41.81860000;0;86;America/Sao_Paulo;9274;3422;210000;957.7;0.00;2549;92
762;2204709;Inhuma;Piauí;PI;-6.66500000;-41.70410000;0;89;America/Sao_Paulo;14958;4771;210000;1267.47;0.00;4377;502
763;2204808;Ipiranga do Piauí;Piauí;PI;-6.82421000;-41.73810000;0;89;America/Sao_Paulo;9420;2779;210000;1159.37;0.00;2801;245
764;2204907;Isaías Coelho;Piauí;PI;-7.73597000;-41.67350000;0;89;America/Sao_Paulo;7774;1519;210000;1168.34;0.00;2313;133
765;2205003;Itainópolis;Piauí;PI;-7.44336000;-41.46870000;0;89;America/Sao_Paulo;10790;2596;210000;1222.58;0.00;3445;268
766;2205102;Itaueira;Piauí;PI;-7.59989000;-43.02490000;0;89;America/Sao_Paulo;10323;2823;210000;1625.69;0.00;2925;361
767;2205151;Jacobina do Piauí;Piauí;PI;-7.93063000;-41.20750000;0;89;America/Sao_Paulo;5613;2120;210000;1121.81;0.00;1723;125
768;2205201;Jaicós;Piauí;PI;-7.36229000;-41.13710000;0;89;America/Sao_Paulo;17527;4946;210000;1285.54;0.00;5202;508
769;2205250;Jardim do Mulato;Piauí;PI;-6.09900000;-42.63000000;0;86;America/Sao_Paulo;4180;738;210000;1521.22;0.00;1323;22
770;2205276;Jatobá do Piauí;Piauí;PI;-4.77025000;-41.81700000;0;86;America/Sao_Paulo;4494;1396;210000;1020.41;0.00;1245;52
771;2205300;Jerumenha;Piauí;PI;-7.09128000;-43.50330000;0;89;America/Sao_Paulo;4497;1627;210000;1465.32;0.00;1179;108
772;2205359;João Costa;Piauí;PI;-8.50736000;-42.42640000;0;89;America/Sao_Paulo;2970;660;210000;1109.36;0.00;894;21
773;2205409;Joaquim Pires;Piauí;PI;-3.50164000;-42.18650000;0;86;America/Sao_Paulo;13886;3232;210000;1231.23;0.00;3897;178
774;2205458;Joca Marques;Piauí;PI;-3.48040000;-42.42550000;0;86;America/Sao_Paulo;5394;555;210000;1858.76;0.00;1560;46
775;2205508;José de Freitas;Piauí;PI;-4.75146000;-42.57460000;0;86;America/Sao_Paulo;42559;14044;210000;1240.02;0.00;11638;764
776;2205516;Juazeiro do Piauí;Piauí;PI;-5.17459000;-41.69760000;0;86;America/Sao_Paulo;5214;1577;210000;1261.4;0.00;1514;82
777;2205524;Júlio Borges;Piauí;PI;-10.32250000;-44.23810000;0;89;America/Sao_Paulo;5388;929;210000;1444.82;0.00;1575;36
778;2205532;Jurema;Piauí;PI;-9.21992000;-43.13370000;0;89;America/Sao_Paulo;4425;465;210000;1344.3;0.00;1390;46
779;2205540;Lagoinha do Piauí;Piauí;PI;-5.83074000;-42.62230000;0;86;America/Sao_Paulo;2939;720;210000;1143.25;0.00;883;54
780;2205557;Lagoa Alegre;Piauí;PI;-4.51539000;-42.63090000;0;86;America/Sao_Paulo;8256;2064;210000;1494.41;0.00;2309;71
781;2205565;Lagoa do Barro do Piauí;Piauí;PI;-8.47673000;-41.53420000;0;89;America/Sao_Paulo;4995;1258;210000;1697.65;0.00;1480;89
782;2205573;Lagoa de São Francisco;Piauí;PI;-4.38505000;-41.59690000;0;86;America/Sao_Paulo;6331;1395;210000;1286.69;0.00;1875;82
783;2205581;Lagoa do Piauí;Piauí;PI;-5.41864000;-42.64370000;0;86;America/Sao_Paulo;4810;1557;210000;1404.91;0.00;1365;112
784;2205599;Lagoa do Sítio;Piauí;PI;-6.50766000;-41.56530000;0;89;America/Sao_Paulo;4520;872;210000;1247.97;0.00;1465;43
785;2205607;Landri Sales;Piauí;PI;-7.25922000;-43.93640000;0;89;America/Sao_Paulo;5213;1235;210000;1624.24;0.00;1551;109
786;2205706;Luís Correia;Piauí;PI;-2.88438000;-41.66410000;0;86;America/Sao_Paulo;30641;9378;210000;1219.79;0.00;8375;477
787;2205805;Luzilândia;Piauí;PI;-3.46830000;-42.37180000;0;86;America/Sao_Paulo;25375;6139;210000;1259.98;0.00;7017;598
788;2205854;Madeiro;Piauí;PI;-3.48624000;-42.49810000;0;86;America/Sao_Paulo;8032;2010;210000;1254.77;0.00;2140;35
789;2205904;Manoel Emídio;Piauí;PI;-8.01234000;-43.87550000;0;89;America/Sao_Paulo;5209;1222;210000;1621.32;0.00;1498;99
790;2205953;Marcolândia;Piauí;PI;-7.44169000;-40.66020000;0;89;America/Sao_Paulo;8533;2687;210000;1415.18;0.00;2097;588
791;2206001;Marcos Parente;Piauí;PI;-7.11565000;-43.89260000;0;89;America/Sao_Paulo;4724;1447;210000;1364.82;0.00;1283;117
792;2206050;Massapê do Piauí;Piauí;PI;-7.47469000;-41.11030000;0;89;America/Sao_Paulo;5218;1008;210000;1011.98;0.00;1634;46
793;2206100;Matias Olímpio;Piauí;PI;-3.71492000;-42.55070000;0;86;America/Sao_Paulo;10641;2366;210000;1251.57;0.00;2830;114
794;2206209;Miguel Alves;Piauí;PI;-4.16857000;-42.89630000;0;86;America/Sao_Paulo;32150;6380;210000;1216.98;0.00;8424;142
795;2206308;Miguel Leão;Piauí;PI;-5.68077000;-42.74360000;0;86;America/Sao_Paulo;1318;359;210000;1399.46;0.00;376;8
796;2206357;Milton Brandão;Piauí;PI;-4.68295000;-41.41730000;0;86;America/Sao_Paulo;6542;1251;210000;970.15;0.00;1808;103
797;2206407;Monsenhor Gil;Piauí;PI;-5.56200000;-42.60750000;0;86;America/Sao_Paulo;10255;3423;210000;1272.61;0.00;3087;127
798;2206506;Monsenhor Hipólito;Piauí;PI;-6.99275000;-41.02600000;0;89;America/Sao_Paulo;7577;2120;210000;1251.07;0.00;2152;261
799;2206605;Monte Alegre do Piauí;Piauí;PI;-9.75364000;-45.30370000;0;89;America/Sao_Paulo;10660;1965;210000;1412.58;0.00;2812;186
800;2206654;Morro Cabeça no Tempo;Piauí;PI;-9.71891000;-43.90720000;0;89;America/Sao_Paulo;4377;863;210000;1190.43;0.00;1251;59
